[{"id":1851632,"name":"Shuzenji","state":"","country":"JP","coord":{"lon":138.933334,"lat":34.966671}},{"id":1851711,"name":"Shōbu","state":"","country":"JP","coord":{"lon":139.600006,"lat":36.066669}},{"id":1851713,"name":"Shōbara","state":"","country":"JP","coord":{"lon":133.016663,"lat":34.849998}},{"id":1851715,"name":"Shizuoka","state":"","country":"JP","coord":{"lon":138.325424,"lat":35.025219}},{"id":1851751,"name":"Shitara","state":"","country":"JP","coord":{"lon":137.566666,"lat":35.099998}},{"id":1851813,"name":"Shirone","state":"","country":"JP","coord":{"lon":139.016663,"lat":37.76667}},{"id":1851842,"name":"Shirayamamachi","state":"","country":"JP","coord":{"lon":136.633331,"lat":36.433331}},{"id":1851883,"name":"Shiraoka","state":"","country":"JP","coord":{"lon":139.666672,"lat":36.01667}},{"id":1851898,"name":"Shirako","state":"","country":"JP","coord":{"lon":139.633331,"lat":35.76667}},{"id":1851935,"name":"Shirahamachō-usazakiminami","state":"","country":"JP","coord":{"lon":134.716675,"lat":34.783329}},{"id":1851937,"name":"Shirahama","state":"","country":"JP","coord":{"lon":129.733337,"lat":33.01667}},{"id":1851951,"name":"Shiozawa","state":"","country":"JP","coord":{"lon":139.933334,"lat":37.066669}},{"id":1851992,"name":"Shiomidai","state":"","country":"JP","coord":{"lon":139.533325,"lat":35.583328}},{"id":1852003,"name":"Shiojiri","state":"","country":"JP","coord":{"lon":137.966675,"lat":36.099998}},{"id":1852025,"name":"Shiobaru","state":"","country":"JP","coord":{"lon":130.433334,"lat":33.566669}},{"id":1852038,"name":"Shintō","state":"","country":"JP","coord":{"lon":131.259277,"lat":25.85195}},{"id":1852046,"name":"Shinshiro","state":"","country":"JP","coord":{"lon":137.5,"lat":34.900002}},{"id":1852097,"name":"Shinjichō-shinji","state":"","country":"JP","coord":{"lon":132.899994,"lat":35.400002}},{"id":1852102,"name":"Shin’ichi","state":"","country":"JP","coord":{"lon":133.266663,"lat":34.549999}},{"id":1852140,"name":"Shinagawa-ku","state":"","country":"JP","coord":{"lon":139.730164,"lat":35.60902}},{"id":1852195,"name":"Shimoshirouzu","state":"","country":"JP","coord":{"lon":130.433334,"lat":33.51667}},{"id":1852201,"name":"Shimo-satsume","state":"","country":"JP","coord":{"lon":132.649994,"lat":35.216671}},{"id":1852225,"name":"Shimonoseki","state":"","country":"JP","coord":{"lon":130.949997,"lat":33.950001}},{"id":1852237,"name":"Shimonita","state":"","country":"JP","coord":{"lon":138.783325,"lat":36.216671}},{"id":1852272,"name":"Shimoku","state":"","country":"JP","coord":{"lon":135.600006,"lat":35.099998}},{"id":1852278,"name":"Shimokodanaka","state":"","country":"JP","coord":{"lon":139.633331,"lat":35.566669}},{"id":1852347,"name":"Shimodate","state":"","country":"JP","coord":{"lon":139.983337,"lat":36.299999}},{"id":1852357,"name":"Shimoda","state":"","country":"JP","coord":{"lon":138.949997,"lat":34.666672}},{"id":1852383,"name":"Minato","state":"","country":"JP","coord":{"lon":135.199997,"lat":34.183331}},{"id":1852385,"name":"Nishishinminato","state":"","country":"JP","coord":{"lon":137.066666,"lat":36.783329}},{"id":1852427,"name":"Shinbashichō","state":"","country":"JP","coord":{"lon":139.516663,"lat":35.433331}},{"id":1852442,"name":"Shimane-ken","state":"","country":"JP","coord":{"lon":132.561111,"lat":35.076931}},{"id":1852472,"name":"Shimada","state":"","country":"JP","coord":{"lon":138.183334,"lat":34.816669}},{"id":1852479,"name":"Shimabara","state":"","country":"JP","coord":{"lon":130.366669,"lat":32.783329}},{"id":1852502,"name":"Shiki","state":"","country":"JP","coord":{"lon":139.583328,"lat":35.833328}},{"id":1852524,"name":"Shijōdōri","state":"","country":"JP","coord":{"lon":135.763031,"lat":35.00378}},{"id":1852534,"name":"Shiida","state":"","country":"JP","coord":{"lon":131.057968,"lat":33.653412}},{"id":1852553,"name":"Shiga","state":"","country":"JP","coord":{"lon":136.13652,"lat":35.219391}},{"id":1852561,"name":"Shido","state":"","country":"JP","coord":{"lon":134.173325,"lat":34.32333}},{"id":1852579,"name":"Nanabari","state":"","country":"JP","coord":{"lon":125.308693,"lat":24.783461}},{"id":1852588,"name":"Shibushi","state":"","country":"JP","coord":{"lon":131.104996,"lat":31.466669}},{"id":1852595,"name":"Shibukawa","state":"","country":"JP","coord":{"lon":139,"lat":36.48333}},{"id":1852607,"name":"Shibata","state":"","country":"JP","coord":{"lon":139.333328,"lat":37.950001}},{"id":1852663,"name":"Seto","state":"","country":"JP","coord":{"lon":137.100006,"lat":35.23333}},{"id":1852673,"name":"Setakamachi-takayanagi","state":"","country":"JP","coord":{"lon":130.466675,"lat":33.150002}},{"id":1852676,"name":"Umegaoka","state":"","country":"JP","coord":{"lon":139.649994,"lat":35.633331}},{"id":1852679,"name":"Seta","state":"","country":"JP","coord":{"lon":135.916672,"lat":34.966671}},{"id":1852685,"name":"Kiire-sesekushichō","state":"","country":"JP","coord":{"lon":130.516663,"lat":31.41667}},{"id":1852699,"name":"Senzaki","state":"","country":"JP","coord":{"lon":131.199997,"lat":34.383331}},{"id":1852736,"name":"Satsumasendai","state":"","country":"JP","coord":{"lon":130.300003,"lat":31.816669}},{"id":1852748,"name":"Sembonyama","state":"","country":"JP","coord":{"lon":129.850006,"lat":32.700001}},{"id":1852775,"name":"Sekimachi","state":"","country":"JP","coord":{"lon":136.916672,"lat":35.48333}},{"id":1852788,"name":"Sekigahara","state":"","country":"JP","coord":{"lon":136.466675,"lat":35.366669}},{"id":1852795,"name":"Sekichō-furumaya","state":"","country":"JP","coord":{"lon":136.399994,"lat":34.849998}},{"id":1852831,"name":"Sayō","state":"","country":"JP","coord":{"lon":134.366669,"lat":35}},{"id":1852849,"name":"Satte","state":"","country":"JP","coord":{"lon":139.716675,"lat":36.066669}},{"id":1852899,"name":"Sasebo","state":"","country":"JP","coord":{"lon":129.722778,"lat":33.159168}},{"id":1852901,"name":"Sasayama","state":"","country":"JP","coord":{"lon":135.216675,"lat":35.066669}},{"id":1852915,"name":"Sasaguri","state":"","country":"JP","coord":{"lon":130.533325,"lat":33.616669}},{"id":1852964,"name":"Sano","state":"","country":"JP","coord":{"lon":139.583328,"lat":36.316669}},{"id":1852984,"name":"Sanjō","state":"","country":"JP","coord":{"lon":138.949997,"lat":37.616669}},{"id":1853008,"name":"Sandachō","state":"","country":"JP","coord":{"lon":135.233337,"lat":34.883331}},{"id":1853024,"name":"Sanmyō","state":"","country":"JP","coord":{"lon":131.350006,"lat":32}},{"id":1853045,"name":"Sanbashidōri","state":"","country":"JP","coord":{"lon":133.550003,"lat":33.549999}},{"id":1853058,"name":"Sakurakabu","state":"","country":"JP","coord":{"lon":139.466675,"lat":35.450001}},{"id":1853066,"name":"Sakurai","state":"","country":"JP","coord":{"lon":135.850006,"lat":34.5}},{"id":1853071,"name":"Sakurachō","state":"","country":"JP","coord":{"lon":139.466675,"lat":36.150002}},{"id":1853072,"name":"Sakurabashidōri","state":"","country":"JP","coord":{"lon":137.216675,"lat":36.700001}},{"id":1853140,"name":"Sakata","state":"","country":"JP","coord":{"lon":139.854996,"lat":38.916672}},{"id":1853150,"name":"Ichinomiyamachi-sakanashi","state":"","country":"JP","coord":{"lon":131.133331,"lat":32.933331}},{"id":1853163,"name":"Sakaki","state":"","country":"JP","coord":{"lon":138.183334,"lat":36.466671}},{"id":1853174,"name":"Sakaiminato","state":"","country":"JP","coord":{"lon":133.233337,"lat":35.549999}},{"id":1853188,"name":"Sakaidechō","state":"","country":"JP","coord":{"lon":133.850006,"lat":34.316669}},{"id":1853192,"name":"Sakai-nakajima","state":"","country":"JP","coord":{"lon":139.25,"lat":36.26667}},{"id":1853193,"name":"Sakai","state":"","country":"JP","coord":{"lon":139.800003,"lat":36.099998}},{"id":1853202,"name":"Sakaguchi","state":"","country":"JP","coord":{"lon":139.033325,"lat":35.950001}},{"id":1853209,"name":"Sakado","state":"","country":"JP","coord":{"lon":139.388885,"lat":35.95694}},{"id":1853226,"name":"Saitama-ken","state":"","country":"JP","coord":{"lon":139.649033,"lat":35.857208}},{"id":1853237,"name":"Saiki","state":"","country":"JP","coord":{"lon":131.899994,"lat":32.950001}},{"id":1853280,"name":"Sagara","state":"","country":"JP","coord":{"lon":138.199997,"lat":34.683331}},{"id":1853295,"name":"Sagamihara","state":"","country":"JP","coord":{"lon":139.354446,"lat":35.553059}},{"id":1853299,"name":"Saga-ken","state":"","country":"JP","coord":{"lon":130.114914,"lat":33.28904}},{"id":1853303,"name":"Saga","state":"","country":"JP","coord":{"lon":130.298798,"lat":33.249321}},{"id":1853338,"name":"Sabae","state":"","country":"JP","coord":{"lon":136.184982,"lat":35.946468}},{"id":1853354,"name":"Ryūō","state":"","country":"JP","coord":{"lon":138.5,"lat":35.650002}},{"id":1853371,"name":"Ryōtsu-minato","state":"","country":"JP","coord":{"lon":138.433334,"lat":38.083328}},{"id":1853394,"name":"Ronji","state":"","country":"JP","coord":{"lon":130.716675,"lat":31.783331}},{"id":1853398,"name":"Rokujizō","state":"","country":"JP","coord":{"lon":135.800003,"lat":34.933331}},{"id":1853412,"name":"Renjakuchō","state":"","country":"JP","coord":{"lon":139.066666,"lat":36.383331}},{"id":1853433,"name":"Ōzu","state":"","country":"JP","coord":{"lon":130.866669,"lat":32.866669}},{"id":1853483,"name":"Oyama","state":"","country":"JP","coord":{"lon":139.800003,"lat":36.299999}},{"id":1853486,"name":"Ōyama","state":"","country":"JP","coord":{"lon":138.216675,"lat":34.599998}},{"id":1853514,"name":"Owase","state":"","country":"JP","coord":{"lon":136.199997,"lat":34.066669}},{"id":1853564,"name":"Ōtsuki","state":"","country":"JP","coord":{"lon":138.933334,"lat":35.599998}},{"id":1853574,"name":"Ōtsu","state":"","country":"JP","coord":{"lon":135.868332,"lat":35.00444}},{"id":1853620,"name":"Ohtemachi","state":"","country":"JP","coord":{"lon":136.220169,"lat":36.067348}},{"id":1853662,"name":"Ōtake","state":"","country":"JP","coord":{"lon":132.216675,"lat":34.200001}},{"id":1853677,"name":"Ōta","state":"","country":"JP","coord":{"lon":139.366669,"lat":36.299999}},{"id":1853807,"name":"Oshi","state":"","country":"JP","coord":{"lon":139.449997,"lat":36.133331}},{"id":1853904,"name":"Ōsaka-fu","state":"","country":"JP","coord":{"lon":135.519684,"lat":34.68631}},{"id":1853908,"name":"Osaka","state":"","country":"JP","coord":{"lon":137.266663,"lat":35.950001}},{"id":1853992,"name":"Onomichi","state":"","country":"JP","coord":{"lon":133.199997,"lat":34.416672}},{"id":1854018,"name":"Onoda","state":"","country":"JP","coord":{"lon":131.183609,"lat":34.001389}},{"id":1854022,"name":"Ono","state":"","country":"JP","coord":{"lon":136.487274,"lat":35.98106}},{"id":1854028,"name":"Ōno-hara","state":"","country":"JP","coord":{"lon":132.266663,"lat":34.283329}},{"id":1854037,"name":"Onna","state":"","country":"JP","coord":{"lon":127.85083,"lat":26.492781}},{"id":1854083,"name":"Ōmuta","state":"","country":"JP","coord":{"lon":130.449997,"lat":33.033329}},{"id":1854093,"name":"Ōmura","state":"","country":"JP","coord":{"lon":129.953888,"lat":32.921391}},{"id":1854128,"name":"Ōmiyachō","state":"","country":"JP","coord":{"lon":138.616669,"lat":35.216671}},{"id":1854156,"name":"Omi","state":"","country":"JP","coord":{"lon":137.383331,"lat":36.566669}},{"id":1854162,"name":"Ōme","state":"","country":"JP","coord":{"lon":139.243057,"lat":35.78389}},{"id":1854177,"name":"Ōmamachō-ōmama","state":"","country":"JP","coord":{"lon":139.283325,"lat":36.433331}},{"id":1854186,"name":"Ōmachi","state":"","country":"JP","coord":{"lon":137.866669,"lat":36.5}},{"id":1854246,"name":"Ōkuchi-shinohara","state":"","country":"JP","coord":{"lon":130.616669,"lat":32.066669}},{"id":1854255,"name":"Ōkubo-naka","state":"","country":"JP","coord":{"lon":135.350006,"lat":34.400002}},{"id":1854345,"name":"Okinawa","state":"","country":"JP","coord":{"lon":126.668709,"lat":25.772249}},{"id":1854371,"name":"Okegawa","state":"","country":"JP","coord":{"lon":139.55722,"lat":36}},{"id":1854372,"name":"Ōkagō","state":"","country":"JP","coord":{"lon":139.783325,"lat":33.099998}},{"id":1854376,"name":"Okazaki","state":"","country":"JP","coord":{"lon":137.166672,"lat":34.950001}},{"id":1854381,"name":"Okayama-ken","state":"","country":"JP","coord":{"lon":133.810181,"lat":34.902039}},{"id":1854383,"name":"Okayama","state":"","country":"JP","coord":{"lon":133.934998,"lat":34.661671}},{"id":1854384,"name":"Okaya","state":"","country":"JP","coord":{"lon":138.045105,"lat":36.056591}},{"id":1854405,"name":"Ōkawa","state":"","country":"JP","coord":{"lon":130.350006,"lat":33.200001}},{"id":1854431,"name":"Okata","state":"","country":"JP","coord":{"lon":139.383331,"lat":34.783329}},{"id":1854444,"name":"Ojiya","state":"","country":"JP","coord":{"lon":138.800003,"lat":37.299999}},{"id":1854461,"name":"Shinochō-ōji","state":"","country":"JP","coord":{"lon":135.616669,"lat":34.98333}},{"id":1854484,"name":"Oita Prefecture","state":"","country":"JP","coord":{"lon":131.433533,"lat":33.19899}},{"id":1854487,"name":"Ōita","state":"","country":"JP","coord":{"lon":131.612503,"lat":33.23806}},{"id":1854492,"name":"Ōiso","state":"","country":"JP","coord":{"lon":139.30278,"lat":35.303059}},{"id":1854530,"name":"Ōi","state":"","country":"JP","coord":{"lon":139.516663,"lat":35.851109}},{"id":1854579,"name":"Ohama","state":"","country":"JP","coord":{"lon":136.833328,"lat":34.5}},{"id":1854585,"name":"Hama","state":"","country":"JP","coord":{"lon":128.816666,"lat":32.650002}},{"id":1854588,"name":"Ōhama","state":"","country":"JP","coord":{"lon":124.19706,"lat":24.344481}},{"id":1854611,"name":"Ogunimachi","state":"","country":"JP","coord":{"lon":139.75,"lat":38.066669}},{"id":1854626,"name":"Ogose","state":"","country":"JP","coord":{"lon":139.289993,"lat":35.958889}},{"id":1854629,"name":"Ogōri-shimogō","state":"","country":"JP","coord":{"lon":131.399994,"lat":34.099998}},{"id":1854642,"name":"Ōgimachiya","state":"","country":"JP","coord":{"lon":139.399994,"lat":35.833328}},{"id":1854656,"name":"Ogimachi","state":"","country":"JP","coord":{"lon":130.201111,"lat":33.287781}},{"id":1854665,"name":"Ogawa","state":"","country":"JP","coord":{"lon":139.266663,"lat":36.049999}},{"id":1854691,"name":"Ogano","state":"","country":"JP","coord":{"lon":139,"lat":36.01667}},{"id":1854703,"name":"Ōgaki","state":"","country":"JP","coord":{"lon":136.616669,"lat":35.349998}},{"id":1854712,"name":"Mitsushimachō-ōfunakoshi","state":"","country":"JP","coord":{"lon":129.354721,"lat":34.273331}},{"id":1854742,"name":"Ōtera","state":"","country":"JP","coord":{"lon":139.983337,"lat":37.549999}},{"id":1854747,"name":"Odawara","state":"","country":"JP","coord":{"lon":139.159714,"lat":35.255562}},{"id":1854762,"name":"Ōdaka","state":"","country":"JP","coord":{"lon":136.933334,"lat":35.066669}},{"id":1854774,"name":"Ōdachō-ōda","state":"","country":"JP","coord":{"lon":132.5,"lat":35.183331}},{"id":1854788,"name":"Ochiai","state":"","country":"JP","coord":{"lon":138.833328,"lat":35.799999}},{"id":1854798,"name":"Obuse","state":"","country":"JP","coord":{"lon":138.316666,"lat":36.700001}},{"id":1854803,"name":"Ōbu","state":"","country":"JP","coord":{"lon":136.966675,"lat":35}},{"id":1854807,"name":"Obita","state":"","country":"JP","coord":{"lon":129.883331,"lat":32.816669}},{"id":1854849,"name":"Obama","state":"","country":"JP","coord":{"lon":135.746033,"lat":35.495762}},{"id":1854868,"name":"Nyūzen","state":"","country":"JP","coord":{"lon":137.5,"lat":36.933331}},{"id":1854902,"name":"Numazu","state":"","country":"JP","coord":{"lon":138.866669,"lat":35.099998}},{"id":1854905,"name":"Numata","state":"","country":"JP","coord":{"lon":139.050003,"lat":36.633331}},{"id":1854964,"name":"Nosato","state":"","country":"JP","coord":{"lon":127.76667,"lat":26.35}},{"id":1854979,"name":"Nonoichi","state":"","country":"JP","coord":{"lon":136.616669,"lat":36.533329}},{"id":1855066,"name":"Nōgata","state":"","country":"JP","coord":{"lon":130.733337,"lat":33.73333}},{"id":1855078,"name":"Noda","state":"","country":"JP","coord":{"lon":139.858063,"lat":35.941109}},{"id":1855095,"name":"Nobeoka","state":"","country":"JP","coord":{"lon":131.666672,"lat":32.583328}},{"id":1855114,"name":"Nishizu","state":"","country":"JP","coord":{"lon":135.752304,"lat":35.516472}},{"id":1855134,"name":"Nishiwaki","state":"","country":"JP","coord":{"lon":134.966675,"lat":34.98333}},{"id":1855189,"name":"Nishio","state":"","country":"JP","coord":{"lon":137.050003,"lat":34.866669}},{"id":1855203,"name":"Nishinoomote","state":"","country":"JP","coord":{"lon":131,"lat":30.73333}},{"id":1855207,"name":"Nishinomiya-hama","state":"","country":"JP","coord":{"lon":135.333328,"lat":34.716671}},{"id":1855265,"name":"Nishikichō","state":"","country":"JP","coord":{"lon":138.566666,"lat":35.650002}},{"id":1855301,"name":"Nishi-hanawa","state":"","country":"JP","coord":{"lon":138.533325,"lat":35.583328}},{"id":1855309,"name":"Nishigochō","state":"","country":"JP","coord":{"lon":138.183334,"lat":36.650002}},{"id":1855342,"name":"Nishihara","state":"","country":"JP","coord":{"lon":127.755829,"lat":26.18417}},{"id":1855363,"name":"Nirasaki","state":"","country":"JP","coord":{"lon":138.449997,"lat":35.700001}},{"id":1855380,"name":"Ninomiya","state":"","country":"JP","coord":{"lon":139.253326,"lat":35.303329}},{"id":1855395,"name":"Nikkō","state":"","country":"JP","coord":{"lon":139.616669,"lat":36.75}},{"id":1855410,"name":"Niitsu-honchō","state":"","country":"JP","coord":{"lon":139.116669,"lat":37.799999}},{"id":1855416,"name":"Niimi","state":"","country":"JP","coord":{"lon":133.466675,"lat":34.98333}},{"id":1855425,"name":"Niihama","state":"","country":"JP","coord":{"lon":133.316727,"lat":33.959332}},{"id":1855429,"name":"Niigata-ken","state":"","country":"JP","coord":{"lon":138.91748,"lat":37.52343}},{"id":1855431,"name":"Niigata","state":"","country":"JP","coord":{"lon":139.023605,"lat":37.902222}},{"id":1855444,"name":"Nihon’ōdōri","state":"","country":"JP","coord":{"lon":139.649994,"lat":35.450001}},{"id":1855476,"name":"Nichinan","state":"","country":"JP","coord":{"lon":131.366669,"lat":31.6}},{"id":1855503,"name":"Nerima","state":"","country":"JP","coord":{"lon":139.649994,"lat":35.73333}},{"id":1855512,"name":"Nemoto","state":"","country":"JP","coord":{"lon":139.833328,"lat":34.900002}},{"id":1855540,"name":"Naze","state":"","country":"JP","coord":{"lon":129.483337,"lat":28.366671}},{"id":1855566,"name":"Nasuzukuri","state":"","country":"JP","coord":{"lon":135.666672,"lat":34.783329}},{"id":1855580,"name":"Narutochō-mitsuishi","state":"","country":"JP","coord":{"lon":134.616669,"lat":34.183331}},{"id":1855585,"name":"Narusawa","state":"","country":"JP","coord":{"lon":138.733337,"lat":35.75}},{"id":1855608,"name":"Nara-ken","state":"","country":"JP","coord":{"lon":135.832886,"lat":34.685249}},{"id":1855612,"name":"Nara-shi","state":"","country":"JP","coord":{"lon":135.804855,"lat":34.685051}},{"id":1855623,"name":"Nanukaichi","state":"","country":"JP","coord":{"lon":133.466675,"lat":34.599998}},{"id":1855670,"name":"Nanao","state":"","country":"JP","coord":{"lon":136.966675,"lat":37.049999}},{"id":1855694,"name":"Namerikawa","state":"","country":"JP","coord":{"lon":137.333328,"lat":36.76667}},{"id":1855713,"name":"Nakijin","state":"","country":"JP","coord":{"lon":127.971672,"lat":26.675831}},{"id":1855730,"name":"Nakayama","state":"","country":"JP","coord":{"lon":139.949997,"lat":35.716671}},{"id":1855753,"name":"Nakatsugawa","state":"","country":"JP","coord":{"lon":137.5,"lat":35.48333}},{"id":1855756,"name":"Nakatsu","state":"","country":"JP","coord":{"lon":137.716675,"lat":34.799999}},{"id":1855847,"name":"Nakano","state":"","country":"JP","coord":{"lon":131.310883,"lat":25.94562}},{"id":1855852,"name":"Nakanojōmachi","state":"","country":"JP","coord":{"lon":138.850006,"lat":36.583328}},{"id":1855882,"name":"Nakamura","state":"","country":"JP","coord":{"lon":137.916672,"lat":36.150002}},{"id":1855907,"name":"Nakama","state":"","country":"JP","coord":{"lon":130.699997,"lat":33.816669}},{"id":1855933,"name":"Nakajima","state":"","country":"JP","coord":{"lon":137.216675,"lat":36.716671}},{"id":1855939,"name":"Nakaizumi","state":"","country":"JP","coord":{"lon":137.850006,"lat":34.700001}},{"id":1855944,"name":"Nakaichi","state":"","country":"JP","coord":{"lon":131.483337,"lat":34.166672}},{"id":1855947,"name":"Yamazakichō-nakai","state":"","country":"JP","coord":{"lon":134.533325,"lat":34.98333}},{"id":1855973,"name":"Naka-gōchi","state":"","country":"JP","coord":{"lon":131.333328,"lat":34.01667}},{"id":1855987,"name":"Nakagawa","state":"","country":"JP","coord":{"lon":137.033325,"lat":35.066669}},{"id":1856033,"name":"Nahari","state":"","country":"JP","coord":{"lon":134.016663,"lat":33.416672}},{"id":1856035,"name":"Naha","state":"","country":"JP","coord":{"lon":127.681107,"lat":26.2125}},{"id":1856057,"name":"Nagoya","state":"","country":"JP","coord":{"lon":136.906403,"lat":35.181469}},{"id":1856068,"name":"Nago","state":"","country":"JP","coord":{"lon":127.976112,"lat":26.58806}},{"id":1856156,"name":"Nagasaki Prefecture","state":"","country":"JP","coord":{"lon":129.611084,"lat":33.23344}},{"id":1856177,"name":"Nagasaki","state":"","country":"JP","coord":{"lon":129.873611,"lat":32.74472}},{"id":1856184,"name":"Nagareyama","state":"","country":"JP","coord":{"lon":139.902664,"lat":35.8563}},{"id":1856199,"name":"Nagaoka","state":"","country":"JP","coord":{"lon":138.850006,"lat":37.450001}},{"id":1856207,"name":"Nagao","state":"","country":"JP","coord":{"lon":134.166672,"lat":34.26667}},{"id":1856210,"name":"Nagano-ken","state":"","country":"JP","coord":{"lon":138.040771,"lat":36.13464}},{"id":1856212,"name":"Naganohara","state":"","country":"JP","coord":{"lon":138.633331,"lat":36.549999}},{"id":1856215,"name":"Nagano","state":"","country":"JP","coord":{"lon":138.181107,"lat":36.65139}},{"id":1856239,"name":"Nagahamamachi","state":"","country":"JP","coord":{"lon":131.616669,"lat":33.23333}},{"id":1856243,"name":"Nagahama","state":"","country":"JP","coord":{"lon":136.266663,"lat":35.383331}},{"id":1856293,"name":"Nabari","state":"","country":"JP","coord":{"lon":136.083328,"lat":34.616669}},{"id":1856300,"name":"Myōrakujichō","state":"","country":"JP","coord":{"lon":134.916672,"lat":34.966671}},{"id":1856367,"name":"Musashino","state":"","country":"JP","coord":{"lon":139.559433,"lat":35.706108}},{"id":1856386,"name":"Murotsu","state":"","country":"JP","coord":{"lon":134.149994,"lat":33.283329}},{"id":1856392,"name":"Muroto-misakicho","state":"","country":"JP","coord":{"lon":134.149994,"lat":33.283329}},{"id":1856426,"name":"Muramatsu","state":"","country":"JP","coord":{"lon":139.183334,"lat":37.683331}},{"id":1856434,"name":"Murakami","state":"","country":"JP","coord":{"lon":139.483337,"lat":38.23333}},{"id":1856435,"name":"Muraimachi-minami","state":"","country":"JP","coord":{"lon":137.966675,"lat":36.166672}},{"id":1856456,"name":"Mukō","state":"","country":"JP","coord":{"lon":135.704147,"lat":34.96545}},{"id":1856472,"name":"Mukai-awagasaki","state":"","country":"JP","coord":{"lon":136.633331,"lat":36.633331}},{"id":1856476,"name":"Muikamachi","state":"","country":"JP","coord":{"lon":138.883331,"lat":37.066669}},{"id":1856488,"name":"Mugiura","state":"","country":"JP","coord":{"lon":134.416672,"lat":33.666672}},{"id":1856521,"name":"Motomachi","state":"","country":"JP","coord":{"lon":135.366669,"lat":33.73333}},{"id":1856524,"name":"Motoichiba","state":"","country":"JP","coord":{"lon":138.649994,"lat":35.150002}},{"id":1856531,"name":"Motogoe","state":"","country":"JP","coord":{"lon":129.800003,"lat":32.966671}},{"id":1856560,"name":"Morohongō","state":"","country":"JP","coord":{"lon":139.304443,"lat":35.935558}},{"id":1856566,"name":"Yamakunimachi-morizane","state":"","country":"JP","coord":{"lon":131.033325,"lat":33.400002}},{"id":1856569,"name":"Moriyama","state":"","country":"JP","coord":{"lon":135.983337,"lat":35.066669}},{"id":1856584,"name":"Moriguchi","state":"","country":"JP","coord":{"lon":135.566666,"lat":34.73333}},{"id":1856586,"name":"Mori","state":"","country":"JP","coord":{"lon":137.933334,"lat":34.833328}},{"id":1856667,"name":"Mizunami","state":"","country":"JP","coord":{"lon":137.25,"lat":35.366669}},{"id":1856685,"name":"Mizoguchi","state":"","country":"JP","coord":{"lon":133.433334,"lat":35.349998}},{"id":1856697,"name":"Miyoshi-shi","state":"","country":"JP","coord":{"lon":137.066666,"lat":35.083328}},{"id":1856698,"name":"Miyoshi","state":"","country":"JP","coord":{"lon":132.850006,"lat":34.799999}},{"id":1856703,"name":"Miyazu","state":"","country":"JP","coord":{"lon":135.183334,"lat":35.533329}},{"id":1856710,"name":"Miyazaki","state":"","country":"JP","coord":{"lon":131.297623,"lat":32.198071}},{"id":1856764,"name":"Miyamaechō","state":"","country":"JP","coord":{"lon":139.199997,"lat":36.316669}},{"id":1856775,"name":"Miyakonojō","state":"","country":"JP","coord":{"lon":131.066666,"lat":31.73333}},{"id":1856789,"name":"Miyake-naka","state":"","country":"JP","coord":{"lon":135.550003,"lat":34.583328}},{"id":1856798,"name":"Miyajima","state":"","country":"JP","coord":{"lon":132.326126,"lat":34.30183}},{"id":1856801,"name":"Miyaji","state":"","country":"JP","coord":{"lon":133.983337,"lat":34.200001}},{"id":1856826,"name":"Miyada","state":"","country":"JP","coord":{"lon":137.949997,"lat":35.76667}},{"id":1856828,"name":"Miyata","state":"","country":"JP","coord":{"lon":130.666672,"lat":33.716671}},{"id":1856845,"name":"Miwa","state":"","country":"JP","coord":{"lon":138.199997,"lat":36.666672}},{"id":1856878,"name":"Mitsuke","state":"","country":"JP","coord":{"lon":138.933334,"lat":37.533329}},{"id":1856881,"name":"Mitsukaidō","state":"","country":"JP","coord":{"lon":139.983337,"lat":36.01667}},{"id":1856900,"name":"Mitsugarasu","state":"","country":"JP","coord":{"lon":135.833328,"lat":34.666672}},{"id":1856938,"name":"Mitake","state":"","country":"JP","coord":{"lon":137.133331,"lat":35.416672}},{"id":1856942,"name":"Mitaka-shi","state":"","country":"JP","coord":{"lon":139.559631,"lat":35.68351}},{"id":1856950,"name":"Mita","state":"","country":"JP","coord":{"lon":139.733337,"lat":35.650002}},{"id":1856977,"name":"Mishima","state":"","country":"JP","coord":{"lon":138.916672,"lat":35.116669}},{"id":1857036,"name":"Minowa","state":"","country":"JP","coord":{"lon":138.949997,"lat":36.383331}},{"id":1857046,"name":"Mino","state":"","country":"JP","coord":{"lon":135.470566,"lat":34.826908}},{"id":1857061,"name":"Minobu","state":"","country":"JP","coord":{"lon":138.433334,"lat":35.366669}},{"id":1857089,"name":"Minatomachi","state":"","country":"JP","coord":{"lon":130.449997,"lat":33.033329}},{"id":1857117,"name":"Minano","state":"","country":"JP","coord":{"lon":139.100006,"lat":36.066669}},{"id":1857140,"name":"Minamisenju","state":"","country":"JP","coord":{"lon":139.816666,"lat":35.73333}},{"id":1857144,"name":"Minamirinkan","state":"","country":"JP","coord":{"lon":139.449997,"lat":35.48333}},{"id":1857173,"name":"Minamikasagi","state":"","country":"JP","coord":{"lon":135.933334,"lat":34.75}},{"id":1857208,"name":"Minamata","state":"","country":"JP","coord":{"lon":130.399994,"lat":32.216671}},{"id":1857209,"name":"Minakuchichō-matoba","state":"","country":"JP","coord":{"lon":136.166672,"lat":34.966671}},{"id":1857213,"name":"Minagi","state":"","country":"JP","coord":{"lon":133.649994,"lat":34.716671}},{"id":1857260,"name":"Mikuni","state":"","country":"JP","coord":{"lon":136.151855,"lat":36.21706}},{"id":1857276,"name":"Miki","state":"","country":"JP","coord":{"lon":134.983337,"lat":34.799999}},{"id":1857334,"name":"Mihara","state":"","country":"JP","coord":{"lon":133.083328,"lat":34.400002}},{"id":1857343,"name":"Mifune","state":"","country":"JP","coord":{"lon":130.800003,"lat":32.716671}},{"id":1857352,"name":"Mie-ken","state":"","country":"JP","coord":{"lon":136.382965,"lat":34.521229}},{"id":1857357,"name":"Mie","state":"","country":"JP","coord":{"lon":131.583328,"lat":32.966671}},{"id":1857379,"name":"Mibu","state":"","country":"JP","coord":{"lon":139.800003,"lat":36.416672}},{"id":1857403,"name":"Menuma","state":"","country":"JP","coord":{"lon":139.383331,"lat":36.216671}},{"id":1857441,"name":"Mayanoheta","state":"","country":"JP","coord":{"lon":136.516663,"lat":34.549999}},{"id":1857451,"name":"Matsuzaki","state":"","country":"JP","coord":{"lon":138.783325,"lat":34.75}},{"id":1857470,"name":"Matsutō","state":"","country":"JP","coord":{"lon":136.566666,"lat":36.51667}},{"id":1857496,"name":"Matsuzaka-shi","state":"","country":"JP","coord":{"lon":136.533325,"lat":34.566669}},{"id":1857519,"name":"Matsumoto","state":"","country":"JP","coord":{"lon":137.966675,"lat":36.23333}},{"id":1857533,"name":"Matsugasakihama","state":"","country":"JP","coord":{"lon":139.133331,"lat":37.957779}},{"id":1857550,"name":"Matsue","state":"","country":"JP","coord":{"lon":133.050568,"lat":35.472221}},{"id":1857553,"name":"Matsudo","state":"","country":"JP","coord":{"lon":139.899994,"lat":35.783329}},{"id":1857560,"name":"Matsubase","state":"","country":"JP","coord":{"lon":130.666672,"lat":32.650002}},{"id":1857568,"name":"Matsubara","state":"","country":"JP","coord":{"lon":135.550003,"lat":34.566669}},{"id":1857578,"name":"Matoba","state":"","country":"JP","coord":{"lon":133.949997,"lat":34.25}},{"id":1857594,"name":"Masuda","state":"","country":"JP","coord":{"lon":131.850006,"lat":34.666672}},{"id":1857651,"name":"Maruoka","state":"","country":"JP","coord":{"lon":136.270294,"lat":36.1534}},{"id":1857654,"name":"Marunouchi","state":"","country":"JP","coord":{"lon":139.766663,"lat":35.683331}},{"id":1857659,"name":"Kamimaruko","state":"","country":"JP","coord":{"lon":138.266663,"lat":36.316669}},{"id":1857665,"name":"Marugame","state":"","country":"JP","coord":{"lon":133.783325,"lat":34.283329}},{"id":1857672,"name":"Manzawa","state":"","country":"JP","coord":{"lon":138.516663,"lat":35.216671}},{"id":1857689,"name":"Bandaichō","state":"","country":"JP","coord":{"lon":134.566666,"lat":34.066669}},{"id":1857692,"name":"Manazuru","state":"","country":"JP","coord":{"lon":139.135559,"lat":35.153889}},{"id":1857706,"name":"Mameda-honmachi","state":"","country":"JP","coord":{"lon":136.633331,"lat":36.566669}},{"id":1857712,"name":"Makurazaki","state":"","country":"JP","coord":{"lon":130.316666,"lat":31.26667}},{"id":1857736,"name":"Makinohara","state":"","country":"JP","coord":{"lon":138.116669,"lat":34.816669}},{"id":1857751,"name":"Maki","state":"","country":"JP","coord":{"lon":138.883331,"lat":37.75}},{"id":1857766,"name":"Maizuru","state":"","country":"JP","coord":{"lon":135.333328,"lat":35.450001}},{"id":1857769,"name":"Maibara","state":"","country":"JP","coord":{"lon":136.283325,"lat":35.316669}},{"id":1857829,"name":"Maehama","state":"","country":"JP","coord":{"lon":133.666672,"lat":33.533329}},{"id":1857838,"name":"Maeda","state":"","country":"JP","coord":{"lon":130.966675,"lat":33.966671}},{"id":1857843,"name":"Maebashi","state":"","country":"JP","coord":{"lon":139.060837,"lat":36.391109}},{"id":1857844,"name":"Maebaru-chūō","state":"","country":"JP","coord":{"lon":130.199997,"lat":33.549999}},{"id":1857871,"name":"Machida","state":"","country":"JP","coord":{"lon":139.450836,"lat":35.540279}},{"id":1857906,"name":"Kyōto-shi","state":"","country":"JP","coord":{"lon":135.724014,"lat":35.107368}},{"id":1857907,"name":"Kyoto Prefecture","state":"","country":"JP","coord":{"lon":135.441177,"lat":35.254318}},{"id":1857910,"name":"Kyoto","state":"","country":"JP","coord":{"lon":135.753845,"lat":35.021069}},{"id":1857922,"name":"Kyōguchi","state":"","country":"JP","coord":{"lon":135.333328,"lat":35.450001}},{"id":1857968,"name":"Kuwana","state":"","country":"JP","coord":{"lon":136.699997,"lat":35.066669}},{"id":1858025,"name":"Kushiro","state":"","country":"JP","coord":{"lon":135.416672,"lat":34.799999}},{"id":1858033,"name":"Kushimoto","state":"","country":"JP","coord":{"lon":135.783325,"lat":33.466671}},{"id":1858041,"name":"Kushikino","state":"","country":"JP","coord":{"lon":130.266663,"lat":31.716669}},{"id":1858067,"name":"Kusatsu","state":"","country":"JP","coord":{"lon":135.966675,"lat":35.01667}},{"id":1858088,"name":"Kurume","state":"","country":"JP","coord":{"lon":130.516663,"lat":33.316669}},{"id":1858249,"name":"Kuroda","state":"","country":"JP","coord":{"lon":136.783325,"lat":35.349998}},{"id":1858283,"name":"Kurihashi","state":"","country":"JP","coord":{"lon":139.699997,"lat":36.133331}},{"id":1858296,"name":"Kure","state":"","country":"JP","coord":{"lon":132.566666,"lat":34.23333}},{"id":1858301,"name":"Kurayoshi","state":"","country":"JP","coord":{"lon":133.816666,"lat":35.433331}},{"id":1858311,"name":"Kurashiki","state":"","country":"JP","coord":{"lon":133.766663,"lat":34.583328}},{"id":1858333,"name":"Kuradani","state":"","country":"JP","coord":{"lon":135.333328,"lat":35.450001}},{"id":1858373,"name":"Kunigami","state":"","country":"JP","coord":{"lon":128.683334,"lat":27.41667}},{"id":1858419,"name":"Kumamoto","state":"","country":"JP","coord":{"lon":130.754303,"lat":32.620491}},{"id":1858428,"name":"Kumagaya","state":"","country":"JP","coord":{"lon":139.383331,"lat":36.133331}},{"id":1858445,"name":"Kukichūō","state":"","country":"JP","coord":{"lon":139.666672,"lat":36.066669}},{"id":1858480,"name":"Kugayama","state":"","country":"JP","coord":{"lon":139.600006,"lat":35.683331}},{"id":1858486,"name":"Kugamachi","state":"","country":"JP","coord":{"lon":132.083328,"lat":34.083328}},{"id":1858492,"name":"Kudoyama","state":"","country":"JP","coord":{"lon":135.566666,"lat":34.283329}},{"id":1858498,"name":"Kudamatsu","state":"","country":"JP","coord":{"lon":131.866669,"lat":34}},{"id":1858591,"name":"Kozakai-chō","state":"","country":"JP","coord":{"lon":137.358887,"lat":34.799999}},{"id":1858667,"name":"Kotohira","state":"","country":"JP","coord":{"lon":133.816666,"lat":34.183331}},{"id":1858681,"name":"Kōtari","state":"","country":"JP","coord":{"lon":135.699997,"lat":34.916672}},{"id":1858695,"name":"Kuragaki-kosugi","state":"","country":"JP","coord":{"lon":137.100006,"lat":36.716671}},{"id":1858707,"name":"Ko-shinozu","state":"","country":"JP","coord":{"lon":133.25,"lat":35.5}},{"id":1858729,"name":"Koshigaya","state":"","country":"JP","coord":{"lon":139.783325,"lat":35.883331}},{"id":1858756,"name":"Kosai-shi","state":"","country":"JP","coord":{"lon":137.531754,"lat":34.718399}},{"id":1858794,"name":"Kōnosu","state":"","country":"JP","coord":{"lon":139.516663,"lat":36.049999}},{"id":1858836,"name":"Kōnan","state":"","country":"JP","coord":{"lon":136.870422,"lat":35.33165}},{"id":1858858,"name":"Komoro","state":"","country":"JP","coord":{"lon":138.433334,"lat":36.316669}},{"id":1858866,"name":"Komono","state":"","country":"JP","coord":{"lon":136.516663,"lat":35}},{"id":1858902,"name":"Komatsushimachō","state":"","country":"JP","coord":{"lon":134.583328,"lat":34}},{"id":1858910,"name":"Komatsu","state":"","country":"JP","coord":{"lon":136.450882,"lat":36.40263}},{"id":1858926,"name":"Komaki","state":"","country":"JP","coord":{"lon":136.916672,"lat":35.283329}},{"id":1858937,"name":"Komagatamachi","state":"","country":"JP","coord":{"lon":139.133331,"lat":36.349998}},{"id":1858964,"name":"Kokubunji","state":"","country":"JP","coord":{"lon":139.475555,"lat":35.702221}},{"id":1858972,"name":"Kokubu-matsuki","state":"","country":"JP","coord":{"lon":130.766663,"lat":31.73333}},{"id":1859088,"name":"Koganei","state":"","country":"JP","coord":{"lon":139.501114,"lat":35.691391}},{"id":1859093,"name":"Koga","state":"","country":"JP","coord":{"lon":139.716675,"lat":36.183331}},{"id":1859100,"name":"Kōfu","state":"","country":"JP","coord":{"lon":138.568329,"lat":35.663891}},{"id":1859113,"name":"Kodamachō-kodamaminami","state":"","country":"JP","coord":{"lon":139.133331,"lat":36.183331}},{"id":1859116,"name":"Kodaira","state":"","country":"JP","coord":{"lon":139.483887,"lat":35.726391}},{"id":1859129,"name":"Kochino","state":"","country":"JP","coord":{"lon":136.866669,"lat":35.333328}},{"id":1859133,"name":"Kochi Prefecture","state":"","country":"JP","coord":{"lon":133.364014,"lat":33.428009}},{"id":1859143,"name":"Kōchi","state":"","country":"JP","coord":{"lon":138.933334,"lat":34.700001}},{"id":1859146,"name":"Kochi","state":"","country":"JP","coord":{"lon":133.531113,"lat":33.559719}},{"id":1859171,"name":"Kobe","state":"","country":"JP","coord":{"lon":135.182999,"lat":34.691299}},{"id":1859175,"name":"Kobayashi","state":"","country":"JP","coord":{"lon":130.983337,"lat":31.98333}},{"id":1859181,"name":"Kobaruyama","state":"","country":"JP","coord":{"lon":131.283325,"lat":32.01667}},{"id":1859224,"name":"Kiyama","state":"","country":"JP","coord":{"lon":130.816666,"lat":32.783329}},{"id":1859234,"name":"Kitsuki","state":"","country":"JP","coord":{"lon":131.616669,"lat":33.416672}},{"id":1859262,"name":"Kita-toyama","state":"","country":"JP","coord":{"lon":136.916672,"lat":35.26667}},{"id":1859307,"name":"Kitakyushu","state":"","country":"JP","coord":{"lon":130.833328,"lat":33.833328}},{"id":1859319,"name":"Kitakata","state":"","country":"JP","coord":{"lon":139.866669,"lat":37.650002}},{"id":1859335,"name":"Kitahama","state":"","country":"JP","coord":{"lon":135.916672,"lat":35.166672}},{"id":1859363,"name":"Kitadaishin","state":"","country":"JP","coord":{"lon":137.166672,"lat":36.716671}},{"id":1859383,"name":"Kishiwada","state":"","country":"JP","coord":{"lon":135.366669,"lat":34.466671}},{"id":1859393,"name":"Kisarazu","state":"","country":"JP","coord":{"lon":139.922501,"lat":35.374722}},{"id":1859400,"name":"Kisai","state":"","country":"JP","coord":{"lon":139.583328,"lat":36.099998}},{"id":1859405,"name":"Kiryū","state":"","country":"JP","coord":{"lon":139.333328,"lat":36.400002}},{"id":1859420,"name":"Kiragawachō","state":"","country":"JP","coord":{"lon":134.100006,"lat":33.333328}},{"id":1859462,"name":"Kin","state":"","country":"JP","coord":{"lon":127.917778,"lat":26.452221}},{"id":1859472,"name":"Kimiidera","state":"","country":"JP","coord":{"lon":135.199997,"lat":34.183331}},{"id":1859479,"name":"Kikuna","state":"","country":"JP","coord":{"lon":139.633331,"lat":35.5}},{"id":1859492,"name":"Kikuchi","state":"","country":"JP","coord":{"lon":130.816666,"lat":32.98333}},{"id":1859586,"name":"Kazo","state":"","country":"JP","coord":{"lon":139.600006,"lat":36.116669}},{"id":1859619,"name":"Kawatana","state":"","country":"JP","coord":{"lon":129.866669,"lat":33.066669}},{"id":1859642,"name":"Kawasaki","state":"","country":"JP","coord":{"lon":139.717224,"lat":35.520561}},{"id":1859675,"name":"Kawanishi","state":"","country":"JP","coord":{"lon":135.416672,"lat":34.816669}},{"id":1859687,"name":"Kawamoto","state":"","country":"JP","coord":{"lon":132.5,"lat":34.98333}},{"id":1859716,"name":"Kawai","state":"","country":"JP","coord":{"lon":135.850006,"lat":34.23333}},{"id":1859730,"name":"Kawaguchi","state":"","country":"JP","coord":{"lon":139.720566,"lat":35.805}},{"id":1859740,"name":"Kawagoe","state":"","country":"JP","coord":{"lon":139.485275,"lat":35.908611}},{"id":1859765,"name":"Katsuyama","state":"","country":"JP","coord":{"lon":136.501007,"lat":36.061729}},{"id":1859842,"name":"Katase","state":"","country":"JP","coord":{"lon":139.474442,"lat":35.31694}},{"id":1859884,"name":"Kasukabe","state":"","country":"JP","coord":{"lon":139.753616,"lat":35.976391}},{"id":1859891,"name":"Kasugai","state":"","country":"JP","coord":{"lon":136.97229,"lat":35.24762}},{"id":1859895,"name":"Kasugabaru","state":"","country":"JP","coord":{"lon":130.466675,"lat":33.533329}},{"id":1859900,"name":"Kasuga","state":"","country":"JP","coord":{"lon":130.050003,"lat":33.033329}},{"id":1859908,"name":"Kashiwazaki","state":"","country":"JP","coord":{"lon":138.550003,"lat":37.366669}},{"id":1859913,"name":"Kashiwara","state":"","country":"JP","coord":{"lon":135.766663,"lat":34.450001}},{"id":1859914,"name":"Kashiwano","state":"","country":"JP","coord":{"lon":136.399994,"lat":34.316669}},{"id":1859924,"name":"Kashiwa","state":"","country":"JP","coord":{"lon":139.968887,"lat":35.854439}},{"id":1859941,"name":"Kashima","state":"","country":"JP","coord":{"lon":130.090561,"lat":33.10611}},{"id":1859951,"name":"Kashihara-shi","state":"","country":"JP","coord":{"lon":135.792892,"lat":34.508961}},{"id":1859952,"name":"Kashihara","state":"","country":"JP","coord":{"lon":135.616669,"lat":34.583328}},{"id":1859964,"name":"Kaseda-shirakame","state":"","country":"JP","coord":{"lon":130.316666,"lat":31.41667}},{"id":1859990,"name":"Kasaoka","state":"","country":"JP","coord":{"lon":133.5,"lat":34.5}},{"id":1859998,"name":"Kasamatsuchō","state":"","country":"JP","coord":{"lon":136.766663,"lat":35.366669}},{"id":1860031,"name":"Karochō","state":"","country":"JP","coord":{"lon":134.183334,"lat":35.533329}},{"id":1860034,"name":"Kariya","state":"","country":"JP","coord":{"lon":136.983337,"lat":34.98333}},{"id":1860039,"name":"Kariwa","state":"","country":"JP","coord":{"lon":138.61879,"lat":37.429749}},{"id":1860063,"name":"Karatsu","state":"","country":"JP","coord":{"lon":129.969727,"lat":33.442501}},{"id":1860095,"name":"Kanzakimachi-kanzaki","state":"","country":"JP","coord":{"lon":130.366669,"lat":33.299999}},{"id":1860098,"name":"Kanuma","state":"","country":"JP","coord":{"lon":139.733337,"lat":36.549999}},{"id":1860112,"name":"Kanoya","state":"","country":"JP","coord":{"lon":130.850006,"lat":31.383329}},{"id":1860122,"name":"Kan’onjichō","state":"","country":"JP","coord":{"lon":133.649994,"lat":34.116669}},{"id":1860176,"name":"Kannabechō-yahiro","state":"","country":"JP","coord":{"lon":133.383331,"lat":34.533329}},{"id":1860191,"name":"Kanie","state":"","country":"JP","coord":{"lon":136.800003,"lat":35.133331}},{"id":1860211,"name":"Kanekomachi","state":"","country":"JP","coord":{"lon":139,"lat":36.400002}},{"id":1860239,"name":"Kanazu","state":"","country":"JP","coord":{"lon":136.230804,"lat":36.213261}},{"id":1860243,"name":"Kanazawa","state":"","country":"JP","coord":{"lon":136.625565,"lat":36.59444}},{"id":1860244,"name":"Kanazawachō","state":"","country":"JP","coord":{"lon":139.633331,"lat":35.349998}},{"id":1860250,"name":"Kanayama","state":"","country":"JP","coord":{"lon":135.350006,"lat":33.683331}},{"id":1860256,"name":"Kanaya","state":"","country":"JP","coord":{"lon":138.133331,"lat":34.816669}},{"id":1860291,"name":"Kanagawa","state":"","country":"JP","coord":{"lon":139.338852,"lat":35.417461}},{"id":1860293,"name":"Mitsu-kanagawa","state":"","country":"JP","coord":{"lon":133.933334,"lat":34.799999}},{"id":1860310,"name":"Kamonomiya","state":"","country":"JP","coord":{"lon":139.183334,"lat":35.283329}},{"id":1860321,"name":"Kamojimachō-jōgejima","state":"","country":"JP","coord":{"lon":134.350006,"lat":34.066669}},{"id":1860335,"name":"Kamogatachō-kamogata","state":"","country":"JP","coord":{"lon":133.583328,"lat":34.533329}},{"id":1860380,"name":"Hirosechō-kamiyamasa","state":"","country":"JP","coord":{"lon":133.116669,"lat":35.316669}},{"id":1860437,"name":"Kamirenjaku","state":"","country":"JP","coord":{"lon":139.550003,"lat":35.683331}},{"id":1860458,"name":"Kaminokawa","state":"","country":"JP","coord":{"lon":139.916672,"lat":36.433331}},{"id":1860483,"name":"Kami-nagarekawachō","state":"","country":"JP","coord":{"lon":132.449997,"lat":34.400002}},{"id":1860521,"name":"Kamikōjaku","state":"","country":"JP","coord":{"lon":130.760193,"lat":33.828579}},{"id":1860563,"name":"Kamiichi","state":"","country":"JP","coord":{"lon":137.366669,"lat":36.700001}},{"id":1860588,"name":"Kamigōri","state":"","country":"JP","coord":{"lon":134.366669,"lat":34.866669}},{"id":1860626,"name":"Kameyama","state":"","country":"JP","coord":{"lon":136.449997,"lat":34.849998}},{"id":1860635,"name":"Kameoka","state":"","country":"JP","coord":{"lon":135.583328,"lat":35}},{"id":1860648,"name":"Kameda-honchō","state":"","country":"JP","coord":{"lon":139.116669,"lat":37.866669}},{"id":1860649,"name":"Kameari","state":"","country":"JP","coord":{"lon":139.850006,"lat":35.75}},{"id":1860672,"name":"Kamakura","state":"","country":"JP","coord":{"lon":139.550278,"lat":35.308891}},{"id":1860704,"name":"Kakogawachō-honmachi","state":"","country":"JP","coord":{"lon":134.850006,"lat":34.76667}},{"id":1860728,"name":"Kakegawa","state":"","country":"JP","coord":{"lon":138.016663,"lat":34.76667}},{"id":1860735,"name":"Kakamigahara","state":"","country":"JP","coord":{"lon":136.866669,"lat":35.416672}},{"id":1860748,"name":"Kashima-shi","state":"","country":"JP","coord":{"lon":140.644745,"lat":35.965359}},{"id":1860750,"name":"Kajiki","state":"","country":"JP","coord":{"lon":130.666672,"lat":31.73333}},{"id":1860765,"name":"Kaizuka","state":"","country":"JP","coord":{"lon":135.350006,"lat":34.450001}},{"id":1860785,"name":"Kainan","state":"","country":"JP","coord":{"lon":135.199997,"lat":34.150002}},{"id":1860797,"name":"Kaigandōri","state":"","country":"JP","coord":{"lon":133.916672,"lat":34.666672}},{"id":1860825,"name":"Kagoshima-ken","state":"","country":"JP","coord":{"lon":130.432922,"lat":31.032249}},{"id":1860827,"name":"Kagoshima","state":"","country":"JP","coord":{"lon":130.558136,"lat":31.560181}},{"id":1860834,"name":"Kagawa-ken","state":"","country":"JP","coord":{"lon":133.994705,"lat":34.247169}},{"id":1860841,"name":"Kagasuno","state":"","country":"JP","coord":{"lon":134.583328,"lat":34.116669}},{"id":1860847,"name":"Kagamizu","state":"","country":"JP","coord":{"lon":127.650002,"lat":26.200001}},{"id":1860875,"name":"Kadogawa","state":"","country":"JP","coord":{"lon":131.649994,"lat":32.466671}},{"id":1860876,"name":"Kado","state":"","country":"JP","coord":{"lon":133.850006,"lat":34.783329}},{"id":1860887,"name":"Kachikawa","state":"","country":"JP","coord":{"lon":136.949997,"lat":35.23333}},{"id":1860941,"name":"Jūrokuban","state":"","country":"JP","coord":{"lon":130.983337,"lat":30.6}},{"id":1861006,"name":"Jizōdō","state":"","country":"JP","coord":{"lon":138.850006,"lat":37.616669}},{"id":1861036,"name":"Terauchi","state":"","country":"JP","coord":{"lon":135.533325,"lat":34.783329}},{"id":1861049,"name":"Jigozen","state":"","country":"JP","coord":{"lon":132.316666,"lat":34.333328}},{"id":1861060,"name":"Japan","state":"","country":"JP","coord":{"lon":139.753098,"lat":35.68536}},{"id":1861084,"name":"Izumo","state":"","country":"JP","coord":{"lon":132.766663,"lat":35.366669}},{"id":1861095,"name":"Izumiōtsu","state":"","country":"JP","coord":{"lon":135.399994,"lat":34.5}},{"id":1861107,"name":"Izumi","state":"","country":"JP","coord":{"lon":135.433334,"lat":34.48333}},{"id":1861116,"name":"Izuhara","state":"","country":"JP","coord":{"lon":129.287216,"lat":34.201389}},{"id":1861124,"name":"Izena","state":"","country":"JP","coord":{"lon":127.933563,"lat":26.916269}},{"id":1861164,"name":"Iwatsuki","state":"","country":"JP","coord":{"lon":139.69194,"lat":35.94278}},{"id":1861171,"name":"Iwata","state":"","country":"JP","coord":{"lon":137.850006,"lat":34.700001}},{"id":1861189,"name":"Iwanogawa","state":"","country":"JP","coord":{"lon":135.333328,"lat":34.049999}},{"id":1861202,"name":"Mitsuchō-iwami","state":"","country":"JP","coord":{"lon":134.533325,"lat":34.783329}},{"id":1861207,"name":"Iwakura","state":"","country":"JP","coord":{"lon":136.866669,"lat":35.283329}},{"id":1861212,"name":"Iwakuni","state":"","country":"JP","coord":{"lon":132.183334,"lat":34.150002}},{"id":1861223,"name":"Iwai","state":"","country":"JP","coord":{"lon":139.899994,"lat":36.049999}},{"id":1861244,"name":"Iwade","state":"","country":"JP","coord":{"lon":135.316666,"lat":34.25}},{"id":1861261,"name":"Itsukaichi","state":"","country":"JP","coord":{"lon":139.217773,"lat":35.725281}},{"id":1861280,"name":"Itoman","state":"","country":"JP","coord":{"lon":127.669441,"lat":26.12472}},{"id":1861285,"name":"Itoigawa","state":"","country":"JP","coord":{"lon":137.850006,"lat":37.033329}},{"id":1861290,"name":"Itō","state":"","country":"JP","coord":{"lon":139.083328,"lat":34.966671}},{"id":1861296,"name":"Itazuke","state":"","country":"JP","coord":{"lon":130.449997,"lat":33.566669}},{"id":1861305,"name":"Ikedachō-itano","state":"","country":"JP","coord":{"lon":133.783325,"lat":34.01667}},{"id":1861310,"name":"Itami","state":"","country":"JP","coord":{"lon":135.40126,"lat":34.784271}},{"id":1861314,"name":"Itakura","state":"","country":"JP","coord":{"lon":133.833328,"lat":34.666672}},{"id":1861336,"name":"Isoshi","state":"","country":"JP","coord":{"lon":135.355606,"lat":34.79689}},{"id":1861383,"name":"Ishiki","state":"","country":"JP","coord":{"lon":137.016663,"lat":34.799999}},{"id":1861387,"name":"Ishikawa-ken","state":"","country":"JP","coord":{"lon":136.770493,"lat":36.77145}},{"id":1861393,"name":"Ishikawa","state":"","country":"JP","coord":{"lon":127.821388,"lat":26.42333}},{"id":1861400,"name":"Ishii","state":"","country":"JP","coord":{"lon":134.433334,"lat":34.066669}},{"id":1861406,"name":"Ishige","state":"","country":"JP","coord":{"lon":139.966675,"lat":36.116669}},{"id":1861416,"name":"Ishigaki","state":"","country":"JP","coord":{"lon":124.157173,"lat":24.34478}},{"id":1861436,"name":"Isesaki","state":"","country":"JP","coord":{"lon":139.199997,"lat":36.316669}},{"id":1861449,"name":"Isehara","state":"","country":"JP","coord":{"lon":139.307785,"lat":35.39056}},{"id":1861450,"name":"Ise","state":"","country":"JP","coord":{"lon":136.699997,"lat":34.48333}},{"id":1861454,"name":"Isawa","state":"","country":"JP","coord":{"lon":138.633331,"lat":35.650002}},{"id":1861464,"name":"Isahaya","state":"","country":"JP","coord":{"lon":130.04306,"lat":32.84111}},{"id":1861528,"name":"Inuyama","state":"","country":"JP","coord":{"lon":136.942947,"lat":35.379951}},{"id":1861584,"name":"Ino","state":"","country":"JP","coord":{"lon":133.433334,"lat":33.549999}},{"id":1861586,"name":"Innoshima","state":"","country":"JP","coord":{"lon":133.183334,"lat":34.283329}},{"id":1861598,"name":"Ishidachō-indōjiura","state":"","country":"JP","coord":{"lon":129.75,"lat":33.73333}},{"id":1861602,"name":"Inazawa","state":"","country":"JP","coord":{"lon":136.783325,"lat":35.25}},{"id":1861641,"name":"Ina","state":"","country":"JP","coord":{"lon":137.953781,"lat":35.82756}},{"id":1861661,"name":"Imazu","state":"","country":"JP","coord":{"lon":133.316666,"lat":36.166672}},{"id":1861677,"name":"Imarichō-kō","state":"","country":"JP","coord":{"lon":129.883331,"lat":33.26667}},{"id":1861699,"name":"Imaichi","state":"","country":"JP","coord":{"lon":139.683334,"lat":36.716671}},{"id":1861749,"name":"Ikoma","state":"","country":"JP","coord":{"lon":135.699997,"lat":34.683331}},{"id":1861793,"name":"Ikeda","state":"","country":"JP","coord":{"lon":137.883331,"lat":36.416672}},{"id":1861799,"name":"Ikedachō","state":"","country":"JP","coord":{"lon":133.800003,"lat":34.01667}},{"id":1861816,"name":"Ikaruga","state":"","country":"JP","coord":{"lon":134.583328,"lat":34.833328}},{"id":1861825,"name":"Ijūin","state":"","country":"JP","coord":{"lon":130.399994,"lat":31.616671}},{"id":1861835,"name":"Iizuka","state":"","country":"JP","coord":{"lon":130.683334,"lat":33.633331}},{"id":1861838,"name":"Iiyama","state":"","country":"JP","coord":{"lon":138.366669,"lat":36.849998}},{"id":1861853,"name":"Iijima","state":"","country":"JP","coord":{"lon":137.883331,"lat":35.299999}},{"id":1861864,"name":"Iida","state":"","country":"JP","coord":{"lon":137.82074,"lat":35.51965}},{"id":1861901,"name":"Iga-shi","state":"","country":"JP","coord":{"lon":136.130127,"lat":34.768551}},{"id":1861903,"name":"Ifukugata","state":"","country":"JP","coord":{"lon":131.666672,"lat":32.51667}},{"id":1861949,"name":"Ichinomiya","state":"","country":"JP","coord":{"lon":136.800003,"lat":35.299999}},{"id":1861950,"name":"Ichinomiyachō","state":"","country":"JP","coord":{"lon":134.466675,"lat":34.033329}},{"id":1861968,"name":"Ichikawa","state":"","country":"JP","coord":{"lon":139.924713,"lat":35.719719}},{"id":1862010,"name":"Ibusuki","state":"","country":"JP","coord":{"lon":130.649994,"lat":31.23333}},{"id":1862033,"name":"Ibaraki","state":"","country":"JP","coord":{"lon":135.568283,"lat":34.81641}},{"id":1862034,"name":"Ibara","state":"","country":"JP","coord":{"lon":133.466675,"lat":34.599998}},{"id":1862047,"name":"Hyōgo","state":"","country":"JP","coord":{"lon":134.825974,"lat":35.040321}},{"id":1862098,"name":"Hotaka","state":"","country":"JP","coord":{"lon":137.882538,"lat":36.3396}},{"id":1862136,"name":"Hōryūji","state":"","country":"JP","coord":{"lon":135.733337,"lat":34.616669}},{"id":1862143,"name":"Horinouchi","state":"","country":"JP","coord":{"lon":139.649994,"lat":35.683331}},{"id":1862197,"name":"Honjōchō","state":"","country":"JP","coord":{"lon":136.75,"lat":35.416672}},{"id":1862198,"name":"Honjō","state":"","country":"JP","coord":{"lon":139.183334,"lat":36.23333}},{"id":1862230,"name":"Hondomachi-hondo","state":"","country":"JP","coord":{"lon":130.199997,"lat":32.450001}},{"id":1862291,"name":"Hōjō","state":"","country":"JP","coord":{"lon":139.866669,"lat":34.98333}},{"id":1862292,"name":"Hōjōchō-hōjō","state":"","country":"JP","coord":{"lon":134.833328,"lat":34.933331}},{"id":1862302,"name":"Hōfu","state":"","country":"JP","coord":{"lon":131.566666,"lat":34.049999}},{"id":1862352,"name":"Hitoyoshi","state":"","country":"JP","coord":{"lon":130.75,"lat":32.216671}},{"id":1862363,"name":"Okuhida-onsengō-hitoegane","state":"","country":"JP","coord":{"lon":137.533325,"lat":36.23333}},{"id":1862373,"name":"Hita","state":"","country":"JP","coord":{"lon":130.933334,"lat":33.316669}},{"id":1862389,"name":"Hisai-motomachi","state":"","country":"JP","coord":{"lon":136.466675,"lat":34.666672}},{"id":1862413,"name":"Hiroshima-ken","state":"","country":"JP","coord":{"lon":132.785431,"lat":34.606731}},{"id":1862415,"name":"Hiroshima","state":"","country":"JP","coord":{"lon":132.459366,"lat":34.396271}},{"id":1862444,"name":"Hirokawa","state":"","country":"JP","coord":{"lon":130.966675,"lat":33.116669}},{"id":1862462,"name":"Hiratsuka","state":"","country":"JP","coord":{"lon":139.342224,"lat":35.323059}},{"id":1862471,"name":"Hiratachō","state":"","country":"JP","coord":{"lon":132.816666,"lat":35.433331}},{"id":1862505,"name":"Hirara","state":"","country":"JP","coord":{"lon":125.283333,"lat":24.799999}},{"id":1862513,"name":"Hirao","state":"","country":"JP","coord":{"lon":132.071671,"lat":33.938332}},{"id":1862539,"name":"Hirakata","state":"","country":"JP","coord":{"lon":139.550003,"lat":35.933331}},{"id":1862554,"name":"Hiradogoyamachi","state":"","country":"JP","coord":{"lon":129.866669,"lat":32.75}},{"id":1862555,"name":"Hirado","state":"","country":"JP","coord":{"lon":129.553055,"lat":33.359718}},{"id":1862569,"name":"Hioki","state":"","country":"JP","coord":{"lon":130.350006,"lat":31.58333}},{"id":1862588,"name":"Hinokage","state":"","country":"JP","coord":{"lon":131.399994,"lat":32.650002}},{"id":1862599,"name":"Hino","state":"","country":"JP","coord":{"lon":139.400284,"lat":35.673061}},{"id":1862612,"name":"Himimachi","state":"","country":"JP","coord":{"lon":136.983337,"lat":36.849998}},{"id":1862627,"name":"Himeji","state":"","country":"JP","coord":{"lon":134.699997,"lat":34.816669}},{"id":1862633,"name":"Hikosan","state":"","country":"JP","coord":{"lon":130.899994,"lat":33.48333}},{"id":1862636,"name":"Hikone","state":"","country":"JP","coord":{"lon":136.25,"lat":35.25}},{"id":1862689,"name":"Hiji","state":"","country":"JP","coord":{"lon":131.533325,"lat":33.366669}},{"id":1862732,"name":"Suminoe-higashi","state":"","country":"JP","coord":{"lon":130.199997,"lat":33.200001}},{"id":1862739,"name":"Higashishinagawa","state":"","country":"JP","coord":{"lon":139.733337,"lat":35.599998}},{"id":1862752,"name":"Higashi-ōsaka","state":"","country":"JP","coord":{"lon":135.583328,"lat":34.666672}},{"id":1862782,"name":"Higashimachi","state":"","country":"JP","coord":{"lon":133.083328,"lat":34.400002}},{"id":1862818,"name":"Higashiboridōri","state":"","country":"JP","coord":{"lon":139.050003,"lat":37.916672}},{"id":1862845,"name":"Higashiasahimachi","state":"","country":"JP","coord":{"lon":133.066666,"lat":35.466671}},{"id":1862855,"name":"Higashi","state":"","country":"JP","coord":{"lon":127.22139,"lat":26.576389}},{"id":1862912,"name":"Hekinan","state":"","country":"JP","coord":{"lon":136.983337,"lat":34.883331}},{"id":1862944,"name":"Heda","state":"","country":"JP","coord":{"lon":138.766663,"lat":34.966671}},{"id":1862971,"name":"Hayashima","state":"","country":"JP","coord":{"lon":133.833328,"lat":34.599998}},{"id":1862978,"name":"Hayashi","state":"","country":"JP","coord":{"lon":139.633331,"lat":35.216671}},{"id":1862992,"name":"Hayama","state":"","country":"JP","coord":{"lon":139.583328,"lat":35.26667}},{"id":1862998,"name":"Hayakawa","state":"","country":"JP","coord":{"lon":138.350006,"lat":35.450001}},{"id":1863018,"name":"Hatsukaichi","state":"","country":"JP","coord":{"lon":132.333328,"lat":34.349998}},{"id":1863023,"name":"Hatogaya-honchō","state":"","country":"JP","coord":{"lon":139.736389,"lat":35.834171}},{"id":1863051,"name":"Hatabuchō","state":"","country":"JP","coord":{"lon":130.933334,"lat":33.98333}},{"id":1863077,"name":"Hashio","state":"","country":"JP","coord":{"lon":135.75,"lat":34.566669}},{"id":1863082,"name":"Hashimoto","state":"","country":"JP","coord":{"lon":135.616669,"lat":34.316669}},{"id":1863130,"name":"Harisakichō","state":"","country":"JP","coord":{"lon":137.149994,"lat":34.916672}},{"id":1863140,"name":"Harigaya","state":"","country":"JP","coord":{"lon":139.633331,"lat":35.866669}},{"id":1863161,"name":"Hara","state":"","country":"JP","coord":{"lon":138.550003,"lat":35.966671}},{"id":1863173,"name":"Hanyū","state":"","country":"JP","coord":{"lon":139.533325,"lat":36.166672}},{"id":1863183,"name":"Hannō","state":"","country":"JP","coord":{"lon":139.318054,"lat":35.85194}},{"id":1863209,"name":"Handa","state":"","country":"JP","coord":{"lon":136.933334,"lat":34.883331}},{"id":1863218,"name":"Hanazawa","state":"","country":"JP","coord":{"lon":138.333328,"lat":34.900002}},{"id":1863219,"name":"Hanawadamachi","state":"","country":"JP","coord":{"lon":139.883331,"lat":36.549999}},{"id":1863250,"name":"Hanabatachō","state":"","country":"JP","coord":{"lon":130.699997,"lat":32.799999}},{"id":1863276,"name":"Hamanose","state":"","country":"JP","coord":{"lon":135.149994,"lat":33.883331}},{"id":1863279,"name":"Hamanoichi","state":"","country":"JP","coord":{"lon":130.733337,"lat":31.716669}},{"id":1863282,"name":"Hamanaka","state":"","country":"JP","coord":{"lon":139.783325,"lat":38.816669}},{"id":1863289,"name":"Hamamatsu","state":"","country":"JP","coord":{"lon":137.733337,"lat":34.700001}},{"id":1863293,"name":"Hamakita","state":"","country":"JP","coord":{"lon":137.783325,"lat":34.799999}},{"id":1863310,"name":"Hamada","state":"","country":"JP","coord":{"lon":132.083328,"lat":34.883331}},{"id":1863341,"name":"Hakui","state":"","country":"JP","coord":{"lon":136.783325,"lat":36.883331}},{"id":1863356,"name":"Hakonegasaki","state":"","country":"JP","coord":{"lon":139.351105,"lat":35.76944}},{"id":1863357,"name":"Hakone","state":"","country":"JP","coord":{"lon":139.033325,"lat":35.183331}},{"id":1863385,"name":"Hainuzuka","state":"","country":"JP","coord":{"lon":130.5,"lat":33.200001}},{"id":1863398,"name":"Haibara-akanedai","state":"","country":"JP","coord":{"lon":135.949997,"lat":34.533329}},{"id":1863410,"name":"Hagiwara","state":"","country":"JP","coord":{"lon":137.199997,"lat":36.666672}},{"id":1863418,"name":"Hagi","state":"","country":"JP","coord":{"lon":131.416672,"lat":34.400002}},{"id":1863426,"name":"Katsuren-haebaru","state":"","country":"JP","coord":{"lon":127.871941,"lat":26.336941}},{"id":1863431,"name":"Hadano","state":"","country":"JP","coord":{"lon":139.223618,"lat":35.371109}},{"id":1863440,"name":"Hachiōji","state":"","country":"JP","coord":{"lon":139.323883,"lat":35.65583}},{"id":1863451,"name":"Ōmihachiman","state":"","country":"JP","coord":{"lon":136.097595,"lat":35.128609}},{"id":1863475,"name":"Habu","state":"","country":"JP","coord":{"lon":130.699997,"lat":33.816669}},{"id":1863482,"name":"Gyōda","state":"","country":"JP","coord":{"lon":139.449997,"lat":36.133331}},{"id":1863495,"name":"Gushikawa","state":"","country":"JP","coord":{"lon":127.868607,"lat":26.354441}},{"id":1863501,"name":"Gunma-ken","state":"","country":"JP","coord":{"lon":138.982346,"lat":36.507469}},{"id":1863516,"name":"Goyuchō","state":"","country":"JP","coord":{"lon":137.316666,"lat":34.833328}},{"id":1863521,"name":"Gōtsuchō","state":"","country":"JP","coord":{"lon":132.216675,"lat":35}},{"id":1863528,"name":"Gotenba","state":"","country":"JP","coord":{"lon":138.933334,"lat":35.299999}},{"id":1863540,"name":"Gosen","state":"","country":"JP","coord":{"lon":139.166672,"lat":37.73333}},{"id":1863541,"name":"Gose","state":"","country":"JP","coord":{"lon":135.733337,"lat":34.450001}},{"id":1863592,"name":"Gojō","state":"","country":"JP","coord":{"lon":135.699997,"lat":34.349998}},{"id":1863611,"name":"Gōdo","state":"","country":"JP","coord":{"lon":136.600006,"lat":35.416672}},{"id":1863614,"name":"Gobō","state":"","country":"JP","coord":{"lon":135.149994,"lat":33.883331}},{"id":1863625,"name":"Ginoza","state":"","country":"JP","coord":{"lon":127.973061,"lat":26.47611}},{"id":1863627,"name":"Ginowan","state":"","country":"JP","coord":{"lon":127.761467,"lat":26.26265}},{"id":1863640,"name":"Gifu","state":"","country":"JP","coord":{"lon":137.053986,"lat":35.78091}},{"id":1863641,"name":"Gifu-shi","state":"","country":"JP","coord":{"lon":136.760391,"lat":35.422909}},{"id":1863683,"name":"Ganeko","state":"","country":"JP","coord":{"lon":127.75351,"lat":26.25601}},{"id":1863693,"name":"Gamagōri","state":"","country":"JP","coord":{"lon":137.233337,"lat":34.833328}},{"id":1863713,"name":"Futtsu","state":"","country":"JP","coord":{"lon":139.818604,"lat":35.305279}},{"id":1863788,"name":"Fushimi","state":"","country":"JP","coord":{"lon":135.761322,"lat":34.935551}},{"id":1863822,"name":"Kōfukuchō","state":"","country":"JP","coord":{"lon":135.600006,"lat":34.73333}},{"id":1863834,"name":"Furuichi","state":"","country":"JP","coord":{"lon":132.466675,"lat":34.450001}},{"id":1863837,"name":"Furugen","state":"","country":"JP","coord":{"lon":127.751106,"lat":26.368589}},{"id":1863866,"name":"Funato","state":"","country":"JP","coord":{"lon":135.316666,"lat":34.25}},{"id":1863905,"name":"Honchō","state":"","country":"JP","coord":{"lon":139.983337,"lat":35.693062}},{"id":1863917,"name":"Fukuyama","state":"","country":"JP","coord":{"lon":133.366669,"lat":34.48333}},{"id":1863945,"name":"Fukuroi","state":"","country":"JP","coord":{"lon":137.916672,"lat":34.75}},{"id":1863953,"name":"Fukura","state":"","country":"JP","coord":{"lon":134.716675,"lat":34.25}},{"id":1863958,"name":"Fukuoka Prefecture","state":"","country":"JP","coord":{"lon":130.664719,"lat":33.52813}},{"id":1863967,"name":"Fukuoka","state":"","country":"JP","coord":{"lon":130.41806,"lat":33.606392}},{"id":1863973,"name":"Fukumitsu","state":"","country":"JP","coord":{"lon":136.866669,"lat":36.549999}},{"id":1863978,"name":"Nishifukuma","state":"","country":"JP","coord":{"lon":130.466675,"lat":33.76667}},{"id":1863983,"name":"Fukui","state":"","country":"JP","coord":{"lon":136.225174,"lat":35.850101}},{"id":1863985,"name":"Fukui-shi","state":"","country":"JP","coord":{"lon":136.222565,"lat":36.06443}},{"id":1863997,"name":"Fukuechō","state":"","country":"JP","coord":{"lon":128.841934,"lat":32.688061}},{"id":1864009,"name":"Fukuchiyama","state":"","country":"JP","coord":{"lon":135.116669,"lat":35.299999}},{"id":1864025,"name":"Fukiage-fujimi","state":"","country":"JP","coord":{"lon":139.449997,"lat":36.099998}},{"id":1864031,"name":"Fukayachō","state":"","country":"JP","coord":{"lon":139.283325,"lat":36.200001}},{"id":1864092,"name":"Fujisawa","state":"","country":"JP","coord":{"lon":139.470001,"lat":35.341942}},{"id":1864098,"name":"Fujioka","state":"","country":"JP","coord":{"lon":139.649994,"lat":36.25}},{"id":1864105,"name":"Fujinomiya","state":"","country":"JP","coord":{"lon":138.616669,"lat":35.216671}},{"id":1864132,"name":"Fujieda","state":"","country":"JP","coord":{"lon":138.266663,"lat":34.866669}},{"id":1864154,"name":"Fuchu","state":"","country":"JP","coord":{"lon":139.483337,"lat":35.666672}},{"id":1864155,"name":"Fuchūchō","state":"","country":"JP","coord":{"lon":133.233337,"lat":34.566669}},{"id":1864180,"name":"Enzan","state":"","country":"JP","coord":{"lon":138.733337,"lat":35.700001}},{"id":1864226,"name":"Ehime","state":"","country":"JP","coord":{"lon":132.854721,"lat":33.625801}},{"id":1864231,"name":"Egota","state":"","country":"JP","coord":{"lon":139.666672,"lat":35.73333}},{"id":1864237,"name":"Egashira","state":"","country":"JP","coord":{"lon":136.050003,"lat":35.116669}},{"id":1864240,"name":"Edome-naka","state":"","country":"JP","coord":{"lon":136.212357,"lat":36.138432}},{"id":1864263,"name":"Echigawa","state":"","country":"JP","coord":{"lon":136.199997,"lat":35.166672}},{"id":1864338,"name":"Dōshi","state":"","country":"JP","coord":{"lon":139.216675,"lat":35.583328}},{"id":1864381,"name":"Den’enchōfu","state":"","country":"JP","coord":{"lon":139.666672,"lat":35.583328}},{"id":1864416,"name":"Daitōchō","state":"","country":"JP","coord":{"lon":135.616669,"lat":34.700001}},{"id":1864427,"name":"Daisen","state":"","country":"JP","coord":{"lon":133.533325,"lat":35.383331}},{"id":1864470,"name":"Daidō","state":"","country":"JP","coord":{"lon":131.483337,"lat":34.049999}},{"id":1864518,"name":"Chōfu","state":"","country":"JP","coord":{"lon":139.552216,"lat":35.65556}},{"id":1864523,"name":"Chizu","state":"","country":"JP","coord":{"lon":134.233337,"lat":35.26667}},{"id":1864529,"name":"Chiyoda-ku","state":"","country":"JP","coord":{"lon":139.753632,"lat":35.694019}},{"id":1864549,"name":"Chiryū","state":"","country":"JP","coord":{"lon":137.033325,"lat":35}},{"id":1864557,"name":"Chino","state":"","country":"JP","coord":{"lon":138.154282,"lat":35.9944}},{"id":1864572,"name":"Chikushino-shi","state":"","country":"JP","coord":{"lon":130.515594,"lat":33.496311}},{"id":1864624,"name":"Chigasaki","state":"","country":"JP","coord":{"lon":139.403885,"lat":35.326111}},{"id":1864637,"name":"Chichibu","state":"","country":"JP","coord":{"lon":139.076385,"lat":35.99028}},{"id":1864652,"name":"Chatan","state":"","country":"JP","coord":{"lon":127.770279,"lat":26.309441}},{"id":1864655,"name":"Chabana","state":"","country":"JP","coord":{"lon":128.416672,"lat":27.049999}},{"id":1864660,"name":"Buzen-shi","state":"","country":"JP","coord":{"lon":131.085785,"lat":33.567429}},{"id":1864750,"name":"Beppu","state":"","country":"JP","coord":{"lon":131.491943,"lat":33.273609}},{"id":1864771,"name":"Bentenchō","state":"","country":"JP","coord":{"lon":135.183334,"lat":34.683331}},{"id":1864815,"name":"Ichibanchō","state":"","country":"JP","coord":{"lon":139.75,"lat":35.683331}},{"id":1864821,"name":"Bakurochō","state":"","country":"JP","coord":{"lon":136.649994,"lat":36.566669}},{"id":1864873,"name":"Ayabe","state":"","country":"JP","coord":{"lon":135.25,"lat":35.299999}},{"id":1864878,"name":"Awatabe","state":"","country":"JP","coord":{"lon":136.239395,"lat":35.915611}},{"id":1864894,"name":"Awara","state":"","country":"JP","coord":{"lon":136.192368,"lat":36.223091}},{"id":1864945,"name":"Atami","state":"","country":"JP","coord":{"lon":139.068604,"lat":35.089439}},{"id":1864948,"name":"Ataka-shimmachi","state":"","country":"JP","coord":{"lon":136.407196,"lat":36.402981}},{"id":1864985,"name":"Ashiya","state":"","country":"JP","coord":{"lon":135.302643,"lat":34.728069}},{"id":1865005,"name":"Ashikaga","state":"","country":"JP","coord":{"lon":139.449997,"lat":36.333328}},{"id":1865006,"name":"Ashihara","state":"","country":"JP","coord":{"lon":135.5,"lat":34.666672}},{"id":1865086,"name":"Asahi","state":"","country":"JP","coord":{"lon":136.662796,"lat":35.90469}},{"id":1865090,"name":"Asagaya-minami","state":"","country":"JP","coord":{"lon":139.649994,"lat":35.700001}},{"id":1865103,"name":"Arita","state":"","country":"JP","coord":{"lon":129.899994,"lat":33.183331}},{"id":1865110,"name":"Arimatsu","state":"","country":"JP","coord":{"lon":136.966675,"lat":35.066669}},{"id":1865207,"name":"Arai","state":"","country":"JP","coord":{"lon":138.25,"lat":37.01667}},{"id":1865256,"name":"Aoki","state":"","country":"JP","coord":{"lon":138.133331,"lat":36.366669}},{"id":1865264,"name":"Aoichō","state":"","country":"JP","coord":{"lon":136.916672,"lat":35.166672}},{"id":1865290,"name":"Annaka","state":"","country":"JP","coord":{"lon":138.899994,"lat":36.316669}},{"id":1865294,"name":"Anjō","state":"","country":"JP","coord":{"lon":137.080536,"lat":34.958279}},{"id":1865309,"name":"Anan","state":"","country":"JP","coord":{"lon":134.649994,"lat":33.916672}},{"id":1865312,"name":"Anamizu","state":"","country":"JP","coord":{"lon":136.899994,"lat":37.23333}},{"id":1865375,"name":"Amagi","state":"","country":"JP","coord":{"lon":130.649994,"lat":33.416672}},{"id":1865387,"name":"Amagasaki","state":"","country":"JP","coord":{"lon":135.416672,"lat":34.716671}},{"id":1865401,"name":"Akune","state":"","country":"JP","coord":{"lon":130.199997,"lat":32.01667}},{"id":1865404,"name":"Akuchi","state":"","country":"JP","coord":{"lon":133.633331,"lat":35.01667}},{"id":1865449,"name":"Aki","state":"","country":"JP","coord":{"lon":133.899994,"lat":33.5}},{"id":1865485,"name":"Akashichō","state":"","country":"JP","coord":{"lon":139.783325,"lat":35.666672}},{"id":1865661,"name":"Aioi","state":"","country":"JP","coord":{"lon":134.468063,"lat":34.803612}},{"id":1865694,"name":"Aichi-ken","state":"","country":"JP","coord":{"lon":136.906555,"lat":35.180168}},{"id":1865714,"name":"Ageoshimo","state":"","country":"JP","coord":{"lon":139.588608,"lat":35.969719}},{"id":1865720,"name":"Agematsu","state":"","country":"JP","coord":{"lon":137.692673,"lat":35.784611}},{"id":1865721,"name":"Ageki","state":"","country":"JP","coord":{"lon":136.516663,"lat":35.150002}},{"id":1866362,"name":"Yonggang-ŭp","state":"","country":"KP","coord":{"lon":125.424438,"lat":38.85611}},{"id":1866453,"name":"Yŏngbyŏn","state":"","country":"KP","coord":{"lon":125.804169,"lat":39.813332}},{"id":1866569,"name":"Yŏnan-ŭp","state":"","country":"KP","coord":{"lon":126.16111,"lat":37.90889}},{"id":1866587,"name":"Yŏmju-ŭp","state":"","country":"KP","coord":{"lon":124.598061,"lat":39.89333}},{"id":1866923,"name":"Wŏnsan","state":"","country":"KP","coord":{"lon":127.443611,"lat":39.152779}},{"id":1867927,"name":"T’ongch’ŏn-ŭp","state":"","country":"KP","coord":{"lon":127.89167,"lat":38.953892}},{"id":1868998,"name":"Sŭngho 1-tong","state":"","country":"KP","coord":{"lon":125.977783,"lat":38.99139}},{"id":1869021,"name":"Sunan","state":"","country":"KP","coord":{"lon":125.690002,"lat":39.19833}},{"id":1869446,"name":"Songnim","state":"","country":"KP","coord":{"lon":125.644997,"lat":38.754169}},{"id":1870413,"name":"Sil-li","state":"","country":"KP","coord":{"lon":125.47361,"lat":39.49472}},{"id":1870434,"name":"Sinmak","state":"","country":"KP","coord":{"lon":126.23333,"lat":38.416672}},{"id":1870742,"name":"Sinanju","state":"","country":"KP","coord":{"lon":125.609718,"lat":39.598061}},{"id":1870883,"name":"Sariwŏn","state":"","country":"KP","coord":{"lon":125.755829,"lat":38.507221}},{"id":1871028,"name":"Sangsŏng-ni","state":"","country":"KP","coord":{"lon":126.885559,"lat":39.169441}},{"id":1871484,"name":"Samho-rodongjagu","state":"","country":"KP","coord":{"lon":127.871109,"lat":39.947498}},{"id":1871856,"name":"Pyongyang","state":"","country":"KP","coord":{"lon":125.92778,"lat":38.985279}},{"id":1871871,"name":"P’yŏngsŏng","state":"","country":"KP","coord":{"lon":125.871941,"lat":39.246391}},{"id":1871952,"name":"P’yŏngan-namdo","state":"","country":"KP","coord":{"lon":126.18,"lat":39.511108}},{"id":1871954,"name":"P’yŏngan-bukto","state":"","country":"KP","coord":{"lon":125.279716,"lat":40.05167}},{"id":1871967,"name":"Pyŏksŏng-ŭp","state":"","country":"KP","coord":{"lon":125.556671,"lat":38.047501}},{"id":1872726,"name":"Panghyŏn-dong","state":"","country":"KP","coord":{"lon":125.241386,"lat":39.887218}},{"id":1873107,"name":"Democratic People’s Republic of Korea","state":"","country":"KP","coord":{"lon":127,"lat":40}},{"id":1873172,"name":"Ongjin","state":"","country":"KP","coord":{"lon":125.361938,"lat":37.934719}},{"id":1873757,"name":"Namp’o","state":"","country":"KP","coord":{"lon":125.407784,"lat":38.737499}},{"id":1875054,"name":"Kwaksan","state":"","country":"KP","coord":{"lon":125.082779,"lat":39.6875}},{"id":1875069,"name":"Kuyŏl-li","state":"","country":"KP","coord":{"lon":126.037216,"lat":38.471668}},{"id":1875107,"name":"Kusŏng","state":"","country":"KP","coord":{"lon":125.24472,"lat":39.98111}},{"id":1875506,"name":"Kujang-ŭp","state":"","country":"KP","coord":{"lon":126.030281,"lat":39.867222}},{"id":1875588,"name":"Kowŏn-ŭp","state":"","country":"KP","coord":{"lon":127.243057,"lat":39.438061}},{"id":1875632,"name":"Kosan","state":"","country":"KP","coord":{"lon":127.41806,"lat":38.855831}},{"id":1875790,"name":"Koksan","state":"","country":"KP","coord":{"lon":126.666389,"lat":38.78194}},{"id":1876101,"name":"Kangwŏn-do","state":"","country":"KP","coord":{"lon":127.440826,"lat":38.701939}},{"id":1876153,"name":"Kangdong-ŭp","state":"","country":"KP","coord":{"lon":126.096107,"lat":39.142502}},{"id":1876373,"name":"Kaesŏng","state":"","country":"KP","coord":{"lon":126.554443,"lat":37.970829}},{"id":1876873,"name":"Hwangju-ŭp","state":"","country":"KP","coord":{"lon":125.776108,"lat":38.67028}},{"id":1876884,"name":"Hwanghae-namdo","state":"","country":"KP","coord":{"lon":125.575829,"lat":38.16111}},{"id":1876888,"name":"Hwanghae-bukto","state":"","country":"KP","coord":{"lon":126.300003,"lat":38.562778}},{"id":1877030,"name":"Hŭngnam","state":"","country":"KP","coord":{"lon":127.618607,"lat":39.831669}},{"id":1877046,"name":"Hŭkkyo-ri","state":"","country":"KP","coord":{"lon":125.791939,"lat":38.798611}},{"id":1877148,"name":"Hoeyang","state":"","country":"KP","coord":{"lon":127.598328,"lat":38.710281}},{"id":1877449,"name":"Hamhŭng","state":"","country":"KP","coord":{"lon":127.536392,"lat":39.918331}},{"id":1877450,"name":"Hamnam","state":"","country":"KP","coord":{"lon":127.53083,"lat":40.240002}},{"id":1877615,"name":"Haeju","state":"","country":"KP","coord":{"lon":125.714722,"lat":38.040562}},{"id":1877872,"name":"Chunghwa","state":"","country":"KP","coord":{"lon":125.800003,"lat":38.863892}},{"id":1878389,"name":"Chŏngju","state":"","country":"KP","coord":{"lon":125.210281,"lat":39.693329}},{"id":1879029,"name":"Changyŏn","state":"","country":"KP","coord":{"lon":125.096107,"lat":38.250832}},{"id":1879151,"name":"Ch’angjŏn-dong","state":"","country":"KP","coord":{"lon":125.75,"lat":39.01667}},{"id":1879487,"name":"Chaeryŏng-ŭp","state":"","country":"KP","coord":{"lon":125.615562,"lat":38.39917}},{"id":1879544,"name":"Ayang-ni","state":"","country":"KP","coord":{"lon":125.779999,"lat":38.243061}},{"id":1879672,"name":"Anbyŏn-ŭp","state":"","country":"KP","coord":{"lon":127.523888,"lat":39.0425}},{"id":1879682,"name":"Anak","state":"","country":"KP","coord":{"lon":125.494171,"lat":38.51083}},{"id":1880216,"name":"Tampines Estate","state":"","country":"SG","coord":{"lon":103.940277,"lat":1.35806}},{"id":1880242,"name":"Somapah Serangoon","state":"","country":"SG","coord":{"lon":103.883331,"lat":1.36667}},{"id":1880251,"name":"Republic of Singapore","state":"","country":"SG","coord":{"lon":103.800003,"lat":1.36667}},{"id":1880252,"name":"Singapore","state":"","country":"SG","coord":{"lon":103.850067,"lat":1.28967}},{"id":1880294,"name":"Seletar","state":"","country":"SG","coord":{"lon":103.874168,"lat":1.41}},{"id":1880574,"name":"Kampong Pasir Ris","state":"","country":"SG","coord":{"lon":103.931938,"lat":1.37833}},{"id":1880701,"name":"Chye Kay","state":"","country":"SG","coord":{"lon":103.824173,"lat":1.42611}},{"id":1880755,"name":"Bright Hill Crescent","state":"","country":"SG","coord":{"lon":103.833328,"lat":1.35}},{"id":1881319,"name":"Qiantong","state":"","country":"CN","coord":{"lon":121.352547,"lat":29.224609}},{"id":1881436,"name":"Tianyuan","state":"","country":"CN","coord":{"lon":121.181549,"lat":30.199699}},{"id":1881450,"name":"Langxia","state":"","country":"CN","coord":{"lon":121.074997,"lat":30.16778}},{"id":1881568,"name":"Xiaosha","state":"","country":"CN","coord":{"lon":122.057793,"lat":30.10779}},{"id":1881661,"name":"Yanguan","state":"","country":"CN","coord":{"lon":120.54673,"lat":30.45607}},{"id":1881670,"name":"Qingyunqiao","state":"","country":"CN","coord":{"lon":120.610352,"lat":30.498119}},{"id":1881715,"name":"Nankai","state":"","country":"CN","coord":{"lon":109.4086,"lat":19.08}},{"id":1881852,"name":"Xinwan","state":"","country":"CN","coord":{"lon":120.538567,"lat":30.278891}},{"id":1881858,"name":"Dangshan","state":"","country":"CN","coord":{"lon":120.518997,"lat":30.164431}},{"id":1882056,"name":"Sinhyeon","state":"","country":"KR","coord":{"lon":128.626663,"lat":34.8825}},{"id":1882118,"name":"Tanglin Halt","state":"","country":"SG","coord":{"lon":103.797501,"lat":1.30139}},{"id":1882316,"name":"Woodlands","state":"","country":"SG","coord":{"lon":103.776672,"lat":1.44444}},{"id":1882558,"name":"Thomson Park","state":"","country":"SG","coord":{"lon":103.836388,"lat":1.35722}},{"id":1882707,"name":"Chinese Gardens","state":"","country":"SG","coord":{"lon":103.797783,"lat":1.31139}},{"id":1882749,"name":"Kampong Siren","state":"","country":"SG","coord":{"lon":103.898064,"lat":1.35222}},{"id":1882753,"name":"Punggol Estate","state":"","country":"SG","coord":{"lon":103.908333,"lat":1.36278}},{"id":1883978,"name":"Buyeondong","state":"","country":"KR","coord":{"lon":128.256943,"lat":38.299999}},{"id":1884249,"name":"Kangp’o-ri","state":"","country":"KR","coord":{"lon":127.292503,"lat":38.117779}},{"id":1885004,"name":"Samrong","state":"","country":"TH","coord":{"lon":104.784203,"lat":15.00781}},{"id":1885051,"name":"Bueng Bun","state":"","country":"TH","coord":{"lon":104.044853,"lat":15.3303}},{"id":1885287,"name":"Tiaolou","state":"","country":"CN","coord":{"lon":109.535027,"lat":19.93877}},{"id":1885397,"name":"Changliu","state":"","country":"CN","coord":{"lon":110.200867,"lat":20.013269}},{"id":1885443,"name":"Tayang","state":"","country":"CN","coord":{"lon":110.5047,"lat":19.291349}},{"id":1885696,"name":"Zhengyu","state":"","country":"CN","coord":{"lon":121.361938,"lat":32.064819}},{"id":1885697,"name":"Huolong","state":"","country":"CN","coord":{"lon":121.27076,"lat":32.05632}},{"id":1885698,"name":"Antou","state":"","country":"CN","coord":{"lon":121.316856,"lat":32.06139}},{"id":1885709,"name":"Xingdong","state":"","country":"CN","coord":{"lon":120.968277,"lat":32.082649}},{"id":1885823,"name":"Jiangyou","state":"","country":"CN","coord":{"lon":104.716667,"lat":31.76667}},{"id":1885994,"name":"Songch’ŏni-dong","state":"","country":"KR","coord":{"lon":127.112312,"lat":35.876282}},{"id":1886026,"name":"Xianfeng","state":"","country":"CN","coord":{"lon":120.975166,"lat":32.008999}},{"id":1886046,"name":"Pingdong","state":"","country":"CN","coord":{"lon":120.791672,"lat":32.136391}},{"id":1886064,"name":"Yeyatan","state":"","country":"CN","coord":{"lon":120.4944,"lat":32.560799}},{"id":1886130,"name":"Sŏnyŏl-li","state":"","country":"KR","coord":{"lon":126.625832,"lat":35.896389}},{"id":1886278,"name":"Wanying","state":"","country":"CN","coord":{"lon":120.570892,"lat":33.048672}},{"id":1886598,"name":"Yŏnmu","state":"","country":"KR","coord":{"lon":127.099998,"lat":36.12944}},{"id":1886748,"name":"Unam-ni","state":"","country":"KR","coord":{"lon":127.018333,"lat":36.561668}},{"id":1886840,"name":"Goushan","state":"","country":"CN","coord":{"lon":122.242142,"lat":29.980499}},{"id":1887068,"name":"Fuming","state":"","country":"CN","coord":{"lon":121.60186,"lat":29.873159}},{"id":1887071,"name":"Zhonggongmiao","state":"","country":"CN","coord":{"lon":121.537498,"lat":29.826111}},{"id":1887078,"name":"Xiaying","state":"","country":"CN","coord":{"lon":121.591393,"lat":29.80472}},{"id":1887115,"name":"Wantou","state":"","country":"CN","coord":{"lon":121.550003,"lat":29.897221}},{"id":1887171,"name":"Qidong Yanchang","state":"","country":"CN","coord":{"lon":121.838943,"lat":31.91128}},{"id":1887177,"name":"Jinhai","state":"","country":"CN","coord":{"lon":121.778847,"lat":31.9175}},{"id":1887188,"name":"Huiping","state":"","country":"CN","coord":{"lon":121.777908,"lat":31.76408}},{"id":1887204,"name":"Hehe","state":"","country":"CN","coord":{"lon":121.803413,"lat":31.738359}},{"id":1887218,"name":"Dajiahe","state":"","country":"CN","coord":{"lon":121.55056,"lat":29.42889}},{"id":1887327,"name":"Cipatujah Selatan","state":"","country":"ID","coord":{"lon":108.017303,"lat":-7.7433}},{"id":1887674,"name":"Sizhoutou","state":"","country":"CN","coord":{"lon":121.767502,"lat":29.37278}},{"id":1887715,"name":"Tuci","state":"","country":"CN","coord":{"lon":121.933609,"lat":29.55722}},{"id":1887762,"name":"Baifeng","state":"","country":"CN","coord":{"lon":121.991943,"lat":29.877781}},{"id":1887803,"name":"Li’ao","state":"","country":"CN","coord":{"lon":121.988892,"lat":29.79833}},{"id":1887870,"name":"Tianfen","state":"","country":"CN","coord":{"lon":121.54158,"lat":32.06308}},{"id":1887894,"name":"Caobu","state":"","country":"CN","coord":{"lon":121.085632,"lat":32.246391}},{"id":1887918,"name":"Lingmin","state":"","country":"CN","coord":{"lon":121.040947,"lat":32.384769}},{"id":1888069,"name":"Wujie","state":"","country":"CN","coord":{"lon":120.688889,"lat":32.09306}},{"id":1888247,"name":"Song Dao","state":"","country":"TH","coord":{"lon":103.475471,"lat":17.336281}},{"id":1889484,"name":"Punam-ni","state":"","country":"KP","coord":{"lon":125.660828,"lat":39.23}},{"id":1890085,"name":"Tangp’yŏng","state":"","country":"KR","coord":{"lon":128.038773,"lat":37.570621}},{"id":1890524,"name":"Olilit","state":"","country":"ID","coord":{"lon":131.329163,"lat":-8}},{"id":1892675,"name":"Bến Ðình","state":"","country":"VN","coord":{"lon":107.083328,"lat":10.36833}},{"id":1892721,"name":"Jiguan","state":"","country":"CN","coord":{"lon":122.296303,"lat":29.879801}},{"id":1892727,"name":"Gongqian","state":"","country":"CN","coord":{"lon":122.276497,"lat":29.83279}},{"id":1892823,"name":"Tonghae","state":"","country":"KR","coord":{"lon":129.106934,"lat":37.543892}},{"id":1893233,"name":"Huanshi","state":"","country":"CN","coord":{"lon":113.127609,"lat":23.02812}},{"id":1893246,"name":"Wangniudun","state":"","country":"CN","coord":{"lon":113.647423,"lat":23.053289}},{"id":1894012,"name":"Longtang","state":"","country":"CN","coord":{"lon":110.411011,"lat":19.8843}},{"id":1894017,"name":"Xinpo","state":"","country":"CN","coord":{"lon":110.365463,"lat":19.77165}},{"id":1894026,"name":"Leiming","state":"","country":"CN","coord":{"lon":110.319908,"lat":19.55718}},{"id":1894067,"name":"Gongpo","state":"","country":"CN","coord":{"lon":110.80368,"lat":19.79216}},{"id":1894072,"name":"Baoluo","state":"","country":"CN","coord":{"lon":110.74453,"lat":19.84123}},{"id":1894076,"name":"Sigeng","state":"","country":"CN","coord":{"lon":108.673561,"lat":19.2281}},{"id":1894128,"name":"Wupo","state":"","country":"CN","coord":{"lon":110.067223,"lat":19.18429}},{"id":1894196,"name":"Benhao","state":"","country":"CN","coord":{"lon":109.957748,"lat":18.612181}},{"id":1894221,"name":"Leluo","state":"","country":"CN","coord":{"lon":108.882446,"lat":18.44808}},{"id":1894388,"name":"Motobu","state":"","country":"JP","coord":{"lon":127.890282,"lat":26.652781}},{"id":1894471,"name":"Nandang","state":"","country":"CN","coord":{"lon":120.849442,"lat":27.919439}},{"id":1894619,"name":"Urazoe","state":"","country":"JP","coord":{"lon":127.70639,"lat":26.25444}},{"id":1894628,"name":"Haebaru","state":"","country":"JP","coord":{"lon":127.722504,"lat":26.184719}},{"id":1894694,"name":"Putuoshan","state":"","country":"CN","coord":{"lon":122.38047,"lat":29.98657}},{"id":1894758,"name":"Dadong’ao","state":"","country":"CN","coord":{"lon":122.388809,"lat":29.922279}},{"id":1895090,"name":"Jiujianfang","state":"","country":"CN","coord":{"lon":109.515129,"lat":34.185799}},{"id":1895261,"name":"Zhangguanying","state":"","country":"CN","coord":{"lon":113.174553,"lat":33.654079}},{"id":1895284,"name":"Zhangpan","state":"","country":"CN","coord":{"lon":113.990387,"lat":33.992561}},{"id":1895287,"name":"Sŏnbawi","state":"","country":"KR","coord":{"lon":128.335556,"lat":36.63139}},{"id":1895356,"name":"Liuquan","state":"","country":"CN","coord":{"lon":112.335098,"lat":33.047581}},{"id":1895695,"name":"Kushima","state":"","country":"JP","coord":{"lon":131.233337,"lat":31.45833}},{"id":1895856,"name":"Shaochang","state":"","country":"CN","coord":{"lon":121.753448,"lat":30.9083}},{"id":1896348,"name":"Hikari","state":"","country":"JP","coord":{"lon":131.949997,"lat":33.955002}},{"id":1896758,"name":"Quantang","state":"","country":"CN","coord":{"lon":121.223892,"lat":30.682079}},{"id":1896953,"name":"Pubal","state":"","country":"KR","coord":{"lon":127.507782,"lat":37.291672}},{"id":1897000,"name":"Seongnam-si","state":"","country":"KR","coord":{"lon":127.137779,"lat":37.43861}},{"id":1897007,"name":"Hanam","state":"","country":"KR","coord":{"lon":127.205559,"lat":37.540001}},{"id":1897118,"name":"Hwado","state":"","country":"KR","coord":{"lon":127.307503,"lat":37.6525}},{"id":1897122,"name":"Namyangju","state":"","country":"KR","coord":{"lon":127.214172,"lat":37.636669}},{"id":1897590,"name":"Kaita","state":"","country":"JP","coord":{"lon":132.550003,"lat":34.366669}},{"id":1897924,"name":"Dushan","state":"","country":"CN","coord":{"lon":121.266113,"lat":29.045561}},{"id":1898046,"name":"Seirō","state":"","country":"JP","coord":{"lon":139.255005,"lat":37.98333}},{"id":1898062,"name":"Tangzi","state":"","country":"CN","coord":{"lon":120.08194,"lat":32.93639}},{"id":1898130,"name":"Yangjian","state":"","country":"CN","coord":{"lon":120.55632,"lat":31.62575}},{"id":1898149,"name":"Mirukashi","state":"","country":"JP","coord":{"lon":129.938324,"lat":33.438332}},{"id":1898186,"name":"Yakataishi","state":"","country":"JP","coord":{"lon":129.925003,"lat":33.521671}},{"id":1898207,"name":"Xinzhuang","state":"","country":"CN","coord":{"lon":120.692047,"lat":31.535219}},{"id":1898359,"name":"Mudu","state":"","country":"CN","coord":{"lon":120.511787,"lat":31.251961}},{"id":1898493,"name":"Tongli","state":"","country":"CN","coord":{"lon":120.712639,"lat":31.159401}},{"id":1898494,"name":"Songling","state":"","country":"CN","coord":{"lon":120.717583,"lat":31.1933}},{"id":1898565,"name":"Shadili","state":"","country":"CN","coord":{"lon":122.039093,"lat":30.17523}},{"id":1898597,"name":"Beichan","state":"","country":"CN","coord":{"lon":122.219437,"lat":30.067221}},{"id":1898634,"name":"Yancang","state":"","country":"CN","coord":{"lon":122.056938,"lat":30.0329}},{"id":1898681,"name":"Nizhi","state":"","country":"CN","coord":{"lon":122.17556,"lat":30.304171}},{"id":1898693,"name":"Daidaon","state":"","country":"CN","coord":{"lon":122.197937,"lat":30.295259}},{"id":1898799,"name":"Zhanmao","state":"","country":"CN","coord":{"lon":122.282898,"lat":30.026979}},{"id":1898819,"name":"Huaniao","state":"","country":"CN","coord":{"lon":122.691391,"lat":30.850281}},{"id":1898842,"name":"Wulong","state":"","country":"CN","coord":{"lon":122.517776,"lat":30.70722}},{"id":1898861,"name":"Liutangting","state":"","country":"CN","coord":{"lon":121.264893,"lat":30.275881}},{"id":1898918,"name":"Haiyanmiao","state":"","country":"CN","coord":{"lon":121.3993,"lat":30.22748}},{"id":1898934,"name":"Kandun","state":"","country":"CN","coord":{"lon":121.259506,"lat":30.22538}},{"id":1898962,"name":"Zhangqi","state":"","country":"CN","coord":{"lon":121.45089,"lat":30.11581}},{"id":1899052,"name":"Sanqishi","state":"","country":"CN","coord":{"lon":121.338562,"lat":30.0336}},{"id":1899102,"name":"Nagato","state":"","country":"JP","coord":{"lon":131.199997,"lat":34.383331}},{"id":1899262,"name":"Preah Sihanouk","state":"","country":"KH","coord":{"lon":103.75,"lat":10.66667}},{"id":1899273,"name":"Banteay Meanchey","state":"","country":"KH","coord":{"lon":103,"lat":13.75}},{"id":1899293,"name":"Laojunpo","state":"","country":"CN","coord":{"lon":105.421181,"lat":35.747162}},{"id":1899294,"name":"Qingjiangyi","state":"","country":"CN","coord":{"lon":105.439178,"lat":35.677391}},{"id":1899297,"name":"Baizhuangji","state":"","country":"CN","coord":{"lon":102.573929,"lat":35.720619}},{"id":1899300,"name":"Houjiachuan","state":"","country":"CN","coord":{"lon":105.2201,"lat":35.492828}},{"id":1899313,"name":"Shaozhai","state":"","country":"CN","coord":{"lon":107.803848,"lat":34.991451}},{"id":1899315,"name":"Taijing","state":"","country":"CN","coord":{"lon":105.548889,"lat":34.563332}},{"id":1899334,"name":"Xipo","state":"","country":"CN","coord":{"lon":106.430389,"lat":33.847721}},{"id":1899335,"name":"Dahedian","state":"","country":"CN","coord":{"lon":106.049721,"lat":33.653332}},{"id":1899338,"name":"Huama","state":"","country":"CN","coord":{"lon":104.539749,"lat":33.73671}},{"id":1899343,"name":"Yangtian","state":"","country":"CN","coord":{"lon":105.664528,"lat":33.18396}},{"id":1899347,"name":"Zhuandou","state":"","country":"CN","coord":{"lon":106.073601,"lat":32.709179}},{"id":1899351,"name":"Tielou","state":"","country":"CN","coord":{"lon":104.464447,"lat":32.906651}},{"id":1899371,"name":"Qingyu","state":"","country":"CN","coord":{"lon":107.178787,"lat":32.21571}},{"id":1899402,"name":"Cook Islands","state":"","country":"CK","coord":{"lon":-159.785156,"lat":-21.248421}},{"id":1900608,"name":"Totok","state":"","country":"ID","coord":{"lon":119.306,"lat":-9.4828}},{"id":1900790,"name":"Belanting","state":"","country":"ID","coord":{"lon":116.627502,"lat":-8.3053}},{"id":1901233,"name":"Xiliguantun","state":"","country":"CN","coord":{"lon":115.941391,"lat":37.078331}},{"id":1901597,"name":"Obelobel","state":"","country":"ID","coord":{"lon":116.549103,"lat":-8.2654}},{"id":1901631,"name":"Tulehu","state":"","country":"ID","coord":{"lon":128.340073,"lat":-3.59108}},{"id":1901903,"name":"Xiaojiezi","state":"","country":"CN","coord":{"lon":102.8638,"lat":24.344761}},{"id":1901904,"name":"Sijie","state":"","country":"CN","coord":{"lon":102.705276,"lat":24.16667}},{"id":1901958,"name":"Kowo","state":"","country":"ID","coord":{"lon":119.006104,"lat":-8.5352}},{"id":1902028,"name":"Gyeongsangnam-do","state":"","country":"KR","coord":{"lon":128.25,"lat":35.25}},{"id":1902418,"name":"Huai’an","state":"","country":"CN","coord":{"lon":107.818428,"lat":36.583542}},{"id":1903204,"name":"Segorotambak","state":"","country":"ID","coord":{"lon":112.807503,"lat":-7.36667}},{"id":1903205,"name":"Tambakoso","state":"","country":"ID","coord":{"lon":112.803902,"lat":-7.346}},{"id":1903206,"name":"Medokanayu","state":"","country":"ID","coord":{"lon":112.798798,"lat":-7.3256}},{"id":1903273,"name":"Ngembo","state":"","country":"ID","coord":{"lon":112.502197,"lat":-6.9087}},{"id":1904168,"name":"Hepingchang","state":"","country":"CN","coord":{"lon":106.455276,"lat":29.225}},{"id":1904214,"name":"Pelabuhan Kelang Utara","state":"","country":"MY","coord":{"lon":101.42083,"lat":3.07361}},{"id":1904391,"name":"Ban Houakhoua","state":"","country":"LA","coord":{"lon":100.45472,"lat":20.245279}},{"id":1904443,"name":"Ban Tinpha","state":"","country":"LA","coord":{"lon":100.434441,"lat":20.253059}},{"id":1904616,"name":"Khouèng Bokèo","state":"","country":"LA","coord":{"lon":100.5,"lat":20.5}},{"id":1904617,"name":"Bolikhamxai","state":"","country":"LA","coord":{"lon":104.333328,"lat":18.5}},{"id":1904618,"name":"Vientiane Prefecture","state":"","country":"LA","coord":{"lon":102.666672,"lat":18.08333}},{"id":1904748,"name":"Panbanqiao","state":"","country":"CN","coord":{"lon":119.871391,"lat":30.38472}},{"id":1905099,"name":"Huyện Ðiện Biên","state":"","country":"VN","coord":{"lon":102.933327,"lat":21.33333}},{"id":1905277,"name":"Zangwan","state":"","country":"CN","coord":{"lon":117.394089,"lat":29.46954}},{"id":1905307,"name":"Xikengkou","state":"","country":"CN","coord":{"lon":118.315277,"lat":29.432699}},{"id":1905412,"name":"Tỉnh Bắc Ninh","state":"","country":"VN","coord":{"lon":106.166672,"lat":21.08333}},{"id":1905419,"name":"Tỉnh Bắc Giang","state":"","country":"VN","coord":{"lon":106.333328,"lat":21.33333}},{"id":1905468,"name":"Tỉnh Ðà Nẵng","state":"","country":"VN","coord":{"lon":108.083328,"lat":16.08333}},{"id":1905475,"name":"Tỉnh Bình Dương","state":"","country":"VN","coord":{"lon":106.666672,"lat":11.16667}},{"id":1905480,"name":"Tỉnh Bình Phước","state":"","country":"VN","coord":{"lon":106.916672,"lat":11.75}},{"id":1905497,"name":"Tỉnh Thái Nguyên","state":"","country":"VN","coord":{"lon":105.833328,"lat":21.66667}},{"id":1905516,"name":"Tỉnh Quảng Nam","state":"","country":"VN","coord":{"lon":107.916672,"lat":15.58333}},{"id":1905577,"name":"Tỉnh Phú Thọ","state":"","country":"VN","coord":{"lon":105.166672,"lat":21.33333}},{"id":1905626,"name":"Tỉnh Nam Ðịnh","state":"","country":"VN","coord":{"lon":106.25,"lat":20.25}},{"id":1905637,"name":"Tỉnh Hà Nam","state":"","country":"VN","coord":{"lon":106,"lat":20.58333}},{"id":1905669,"name":"Tỉnh Bắc Kạn","state":"","country":"VN","coord":{"lon":105.833328,"lat":22.16667}},{"id":1905675,"name":"Tỉnh Bạc Liêu","state":"","country":"VN","coord":{"lon":105.75,"lat":9.25}},{"id":1905678,"name":"Tỉnh Cà Mau","state":"","country":"VN","coord":{"lon":105.083328,"lat":9.08333}},{"id":1905686,"name":"Tỉnh Hải Dương","state":"","country":"VN","coord":{"lon":106.333328,"lat":20.91667}},{"id":1905699,"name":"Tỉnh Hưng Yên","state":"","country":"VN","coord":{"lon":106.083328,"lat":20.83333}},{"id":1905806,"name":"Runsong","state":"","country":"CN","coord":{"lon":109.095284,"lat":26.868891}},{"id":1905856,"name":"Tỉnh Vĩnh Phúc","state":"","country":"VN","coord":{"lon":105.599998,"lat":21.299999}},{"id":1906090,"name":"Dundong","state":"","country":"CN","coord":{"lon":109.144997,"lat":26.01083}},{"id":1906137,"name":"Gaowu","state":"","country":"CN","coord":{"lon":108.907784,"lat":25.559999}},{"id":1906305,"name":"Ploso","state":"","country":"ID","coord":{"lon":112.763329,"lat":-7.25222}},{"id":1906549,"name":"Gununganyar","state":"","country":"ID","coord":{"lon":112.782097,"lat":-7.3409}},{"id":1906551,"name":"Panjangjiwo","state":"","country":"ID","coord":{"lon":112.764099,"lat":-7.3129}},{"id":1906553,"name":"Semampir","state":"","country":"ID","coord":{"lon":112.780197,"lat":-7.3082}},{"id":1906562,"name":"Wadungasri","state":"","country":"ID","coord":{"lon":112.768303,"lat":-7.3451}},{"id":1906564,"name":"Wedoro","state":"","country":"ID","coord":{"lon":112.751389,"lat":-7.35111}},{"id":1906569,"name":"Dares","state":"","country":"ID","coord":{"lon":112.762398,"lat":-7.369}},{"id":1906570,"name":"Semampirbarat","state":"","country":"ID","coord":{"lon":112.772781,"lat":-7.37222}},{"id":1906573,"name":"Banjarkemuning","state":"","country":"ID","coord":{"lon":112.808502,"lat":-7.3867}},{"id":1906578,"name":"Tambaksumur","state":"","country":"ID","coord":{"lon":112.772903,"lat":-7.3485}},{"id":1906583,"name":"Buncitan","state":"","country":"ID","coord":{"lon":112.781303,"lat":-7.3961}},{"id":1906589,"name":"Dukuhgisikcemandi","state":"","country":"ID","coord":{"lon":112.806602,"lat":-7.3899}},{"id":1906686,"name":"Changwat Udon Thani","state":"","country":"TH","coord":{"lon":102.833328,"lat":17.33333}},{"id":1906687,"name":"Changwat Prachin Buri","state":"","country":"TH","coord":{"lon":101.666672,"lat":14.08333}},{"id":1906688,"name":"Changwat Ubon Ratchathani","state":"","country":"TH","coord":{"lon":105.166672,"lat":15.16667}},{"id":1906689,"name":"Changwat Amnat Charoen","state":"","country":"TH","coord":{"lon":104.75,"lat":15.91667}},{"id":1906690,"name":"Changwat Nong Bua Lamphu","state":"","country":"TH","coord":{"lon":102.25,"lat":17.25}},{"id":1906691,"name":"Changwat Sa Kaeo","state":"","country":"TH","coord":{"lon":102.333328,"lat":13.75}},{"id":1907116,"name":"Nakai","state":"","country":"JP","coord":{"lon":139.158615,"lat":35.96833}},{"id":1907123,"name":"Hasuda","state":"","country":"JP","coord":{"lon":139.650833,"lat":35.975559}},{"id":1907125,"name":"Kamifukuoka","state":"","country":"JP","coord":{"lon":139.50972,"lat":35.872501}},{"id":1907146,"name":"Sayama","state":"","country":"JP","coord":{"lon":139.412125,"lat":35.852951}},{"id":1907148,"name":"Fussa","state":"","country":"JP","coord":{"lon":139.323608,"lat":35.736671}},{"id":1907157,"name":"Fujino","state":"","country":"JP","coord":{"lon":139.143066,"lat":35.606392}},{"id":1907165,"name":"Kunitachi","state":"","country":"JP","coord":{"lon":139.434998,"lat":35.674438}},{"id":1907174,"name":"Okura","state":"","country":"JP","coord":{"lon":139.470276,"lat":35.584721}},{"id":1907190,"name":"Minawa","state":"","country":"JP","coord":{"lon":139.319443,"lat":35.522781}},{"id":1907225,"name":"Kawara","state":"","country":"JP","coord":{"lon":139.272781,"lat":35.47361}},{"id":1907235,"name":"Miyanomae","state":"","country":"JP","coord":{"lon":139.392776,"lat":35.422779}},{"id":1907255,"name":"Koyasu","state":"","country":"JP","coord":{"lon":139.255554,"lat":35.41806}},{"id":1907300,"name":"Wako","state":"","country":"JP","coord":{"lon":139.623337,"lat":35.78944}},{"id":1907301,"name":"Shimotoda","state":"","country":"JP","coord":{"lon":139.692505,"lat":35.809441}},{"id":1907306,"name":"Komae","state":"","country":"JP","coord":{"lon":139.574432,"lat":35.636391}},{"id":1907307,"name":"Kimitsu","state":"","country":"JP","coord":{"lon":139.891113,"lat":35.325279}},{"id":1907309,"name":"Miura","state":"","country":"JP","coord":{"lon":139.619171,"lat":35.139999}},{"id":1907590,"name":"Baiyatai","state":"","country":"CN","coord":{"lon":113.97361,"lat":39.32806}},{"id":1907837,"name":"Wanchong","state":"","country":"CN","coord":{"lon":109.317078,"lat":18.84864}},{"id":1907842,"name":"Nansheng","state":"","country":"CN","coord":{"lon":109.588097,"lat":18.73945}},{"id":1907847,"name":"Shiling","state":"","country":"CN","coord":{"lon":109.778809,"lat":18.66432}},{"id":1907972,"name":"Haodi","state":"","country":"CN","coord":{"lon":105.758873,"lat":35.000961}},{"id":1907978,"name":"Leiwang","state":"","country":"CN","coord":{"lon":105.14418,"lat":34.050838}},{"id":1907979,"name":"Liuping","state":"","country":"CN","coord":{"lon":105.71917,"lat":34.891392}},{"id":1907996,"name":"Suhe","state":"","country":"CN","coord":{"lon":105.222099,"lat":34.0625}},{"id":1908001,"name":"Wangyin","state":"","country":"CN","coord":{"lon":105.761673,"lat":34.833889}},{"id":1908504,"name":"Dahekan","state":"","country":"CN","coord":{"lon":107.036392,"lat":33.041111}},{"id":1908845,"name":"Yangying","state":"","country":"CN","coord":{"lon":112.167023,"lat":33.0023}},{"id":1908846,"name":"Dafengying","state":"","country":"CN","coord":{"lon":112.841698,"lat":33.006721}},{"id":1908853,"name":"Qutun","state":"","country":"CN","coord":{"lon":112.025398,"lat":33.040409}},{"id":1908861,"name":"Luyi","state":"","country":"CN","coord":{"lon":112.047188,"lat":33.10062}},{"id":1908867,"name":"Xiezhuang","state":"","country":"CN","coord":{"lon":112.435623,"lat":33.14954}},{"id":1908871,"name":"Xuanqiao","state":"","country":"CN","coord":{"lon":112.961952,"lat":33.152649}},{"id":1908893,"name":"Guangyang","state":"","country":"CN","coord":{"lon":112.7015,"lat":33.284389}},{"id":1908895,"name":"Yuandianhui","state":"","country":"CN","coord":{"lon":112.844078,"lat":33.272339}},{"id":1908952,"name":"Jizhong","state":"","country":"CN","coord":{"lon":112.678429,"lat":33.636238}},{"id":1908957,"name":"Xiongbei","state":"","country":"CN","coord":{"lon":112.811798,"lat":33.662479}},{"id":1908997,"name":"Zhangbaqiao","state":"","country":"CN","coord":{"lon":112.959778,"lat":33.862759}},{"id":1909421,"name":"Liuge","state":"","country":"CN","coord":{"lon":113.972221,"lat":32.984169}},